[{"stationcode":"16107","name":"Benjamin Godard - Victor Hugo","is_installed":"OUI","capacity":35,"numdocksavailable":25,"numbikesavailable":9,"mechanical":7,"ebike":2,"is_renting":"OUI","is_returning":"OUI","duedate":"2024-11-10T16:10:21+01:00","coordonnees_geo":{"lon":2.2757,"lat":48.866},"nom_arrondissement_communes":"Paris","code_insee_commune":"75056"},{"stationcode":"9020","name":"Toudouze - Clauzel","is_installed":"OUI","capacity":21,"numdocksavailable":20,"numbikesavailable":1,"mechanical":0,"ebike":1,"is_renting":"OUI","is_returning":"OUI","duedate":"2024-11-10T16:09:30+01:00","coordonnees_geo":{"lon":2.3374,"lat":48.8793},"nom_arrondissement_communes":"Paris","code_insee_commune":"75056"},{"stationcode":"44015","name":"Rouget de L'isle - Watteau","is_installed":"OUI","capacity":20,"numdocksavailable":7,"numbikesavailable":13,"mechanical":11,"ebike":2,"is_renting":"OUI","is_returning":"OUI","duedate":"2024-11-10T16:14:13+01:00","coordonnees_geo":{"lon":2.3963,"lat":48.7782},"nom_arrondissement_communes":"Vitry-sur-Seine","code_insee_commune":"94081"},{"stationcode":"14014","name":"Jourdan - Stade Charléty","is_installed":"OUI","capacity":60,"numdocksavailable":37,"numbikesavailable":20,"mechanical":9,"ebike":11,"is_renting":"OUI","is_returning":"OUI","duedate":"2024-11-10T16:14:42+01:00","coordonnees_geo":{"lon":2.3433,"lat":48.8194},"nom_arrondissement_communes":"Paris","code_insee_commune":"75056"},{"stationcode":"14111","name":"Cassini - Denfert-Rochereau","is_installed":"OUI","capacity":25,"numdocksavailable":19,"numbikesavailable":3,"mechanical":2,"ebike":1,"is_renting":"OUI","is_returning":"OUI","duedate":"2024-11-10T16:15:38+01:00","coordonnees_geo":{"lon":2.336,"lat":48.8375},"nom_arrondissement_communes":"Paris","code_insee_commune":"75056"},{"stationcode":"11104","name":"Charonne - Robert et Sonia Delaunay","is_installed":"OUI","capacity":20,"numdocksavailable":19,"numbikesavailable":1,"mechanical":1,"ebike":0,"is_renting":"OUI","is_returning":"OUI","duedate":"2024-11-10T16:14:25+01:00","coordonnees_geo":{"lon":2.3926,"lat":48.8559},"nom_arrondissement_communes":"Paris","code_insee_commune":"75056"},{"stationcode":"32017","name":"Basilique","is_installed":"OUI","capacity":22,"numdocksavailable":14,"numbikesavailable":7,"mechanical":3,"ebike":4,"is_renting":"OUI","is_returning":"OUI","duedate":"2024-11-10T16:14:51+01:00","coordonnees_geo":{"lon":2.3589,"lat":48.9363},"nom_arrondissement_communes":"Saint-Denis","code_insee_commune":"93066"},{"stationcode":"6003","name":"Saint-Sulpice","is_installed":"OUI","capacity":21,"numdocksavailable":7,"numbikesavailable":14,"mechanical":14,"ebike":0,"is_renting":"OUI","is_returning":"OUI","duedate":"2024-11-10T16:13:27+01:00","coordonnees_geo":{"lon":2.3308,"lat":48.8517},"nom_arrondissement_communes":"Paris","code_insee_commune":"75056"},{"stationcode":"8026","name":"Messine - Place Du Pérou","is_installed":"OUI","capacity":12,"numdocksavailable":8,"numbikesavailable":2,"mechanical":1,"ebike":1,"is_renting":"OUI","is_returning":"OUI","duedate":"2024-11-10T16:10:30+01:00","coordonnees_geo":{"lon":2.3155,"lat":48.8754},"nom_arrondissement_communes":"Paris","code_insee_commune":"75056"},{"stationcode":"6108","name":"Saint-Romain - Cherche-Midi","is_installed":"OUI","capacity":17,"numdocksavailable":13,"numbikesavailable":0,"mechanical":0,"ebike":0,"is_renting":"OUI","is_returning":"OUI","duedate":"2024-11-10T16:13:53+01:00","coordonnees_geo":{"lon":2.3214,"lat":48.8471},"nom_arrondissement_communes":"Paris","code_insee_commune":"75056"},{"stationcode":"13007","name":"Le Brun - Gobelins","is_installed":"OUI","capacity":48,"numdocksavailable":40,"numbikesavailable":8,"mechanical":4,"ebike":4,"is_renting":"OUI","is_returning":"OUI","duedate":"2024-11-10T16:08:18+01:00","coordonnees_geo":{"lon":2.3535,"lat":48.8351},"nom_arrondissement_communes":"Paris","code_insee_commune":"75056"},{"stationcode":"33006","name":"André Karman - République","is_installed":"OUI","capacity":31,"numdocksavailable":15,"numbikesavailable":15,"mechanical":1,"ebike":14,"is_renting":"OUI","is_returning":"OUI","duedate":"2024-11-10T16:12:00+01:00","coordonnees_geo":{"lon":2.3851,"lat":48.9104},"nom_arrondissement_communes":"Aubervilliers","code_insee_commune":"93001"},{"stationcode":"7002","name":"Vaneau - Sèvres","is_installed":"OUI","capacity":35,"numdocksavailable":31,"numbikesavailable":4,"mechanical":0,"ebike":4,"is_renting":"OUI","is_returning":"OUI","duedate":"2024-11-10T16:07:57+01:00","coordonnees_geo":{"lon":2.3204,"lat":48.8486},"nom_arrondissement_communes":"Paris","code_insee_commune":"75056"},{"stationcode":"21010","name":"Silly - Galliéni","is_installed":"OUI","capacity":25,"numdocksavailable":17,"numbikesavailable":6,"mechanical":4,"ebike":2,"is_renting":"OUI","is_returning":"OUI","duedate":"2024-11-10T16:15:45+01:00","coordonnees_geo":{"lon":2.2326,"lat":48.8356},"nom_arrondissement_communes":"Boulogne-Billancourt","code_insee_commune":"92012"},{"stationcode":"5110","name":"Lacépède - Monge","is_installed":"OUI","capacity":23,"numdocksavailable":22,"numbikesavailable":1,"mechanical":0,"ebike":1,"is_renting":"OUI","is_returning":"OUI","duedate":"2024-11-10T16:11:36+01:00","coordonnees_geo":{"lon":2.352,"lat":48.8439},"nom_arrondissement_communes":"Paris","code_insee_commune":"75056"},{"stationcode":"25006","name":"Place Nelson Mandela","is_installed":"OUI","capacity":22,"numdocksavailable":17,"numbikesavailable":4,"mechanical":0,"ebike":4,"is_renting":"OUI","is_returning":"OUI","duedate":"2024-11-10T16:11:07+01:00","coordonnees_geo":{"lon":2.1962,"lat":48.8625},"nom_arrondissement_communes":"Rueil-Malmaison","code_insee_commune":"92063"},{"stationcode":"42016","name":"Pierre et Marie Curie - Maurice Thorez","is_installed":"OUI","capacity":27,"numdocksavailable":26,"numbikesavailable":0,"mechanical":0,"ebike":0,"is_renting":"OUI","is_returning":"OUI","duedate":"2024-11-10T16:12:44+01:00","coordonnees_geo":{"lon":2.3768,"lat":48.8158},"nom_arrondissement_communes":"Ivry-sur-Seine","code_insee_commune":"94041"},{"stationcode":"30002","name":"Jean Rostand - Paul Vaillant Couturier","is_installed":"OUI","capacity":40,"numdocksavailable":18,"numbikesavailable":19,"mechanical":7,"ebike":12,"is_renting":"OUI","is_returning":"OUI","duedate":"2024-11-10T16:07:53+01:00","coordonnees_geo":{"lon":2.4531,"lat":48.9082},"nom_arrondissement_communes":"Bobigny","code_insee_commune":"93008"},{"stationcode":"40011","name":"Bas du Mont-Mesly","is_installed":"NON","capacity":1,"numdocksavailable":1,"numbikesavailable":0,"mechanical":0,"ebike":0,"is_renting":"NON","is_returning":"NON","duedate":"2024-08-29T13:13:08+02:00","coordonnees_geo":{"lon":2.461,"lat":48.779},"nom_arrondissement_communes":"Créteil","code_insee_commune":"94028"},{"stationcode":"40001","name":"Hôpital Mondor","is_installed":"NON","capacity":28,"numdocksavailable":28,"numbikesavailable":0,"mechanical":0,"ebike":0,"is_renting":"NON","is_returning":"NON","duedate":"2024-08-20T08:27:47+02:00","coordonnees_geo":{"lon":2.4537,"lat":48.7989},"nom_arrondissement_communes":"Créteil","code_insee_commune":"94028"},{"stationcode":"15047","name":"Morillons - Dantzig","is_installed":"OUI","capacity":52,"numdocksavailable":50,"numbikesavailable":2,"mechanical":0,"ebike":2,"is_renting":"OUI","is_returning":"OUI","duedate":"2024-11-10T16:14:31+01:00","coordonnees_geo":{"lon":2.2994,"lat":48.8331},"nom_arrondissement_communes":"Paris","code_insee_commune":"75056"},{"stationcode":"7003","name":"Square Boucicaut","is_installed":"OUI","capacity":60,"numdocksavailable":28,"numbikesavailable":32,"mechanical":18,"ebike":14,"is_renting":"OUI","is_returning":"OUI","duedate":"2024-11-10T16:15:42+01:00","coordonnees_geo":{"lon":2.3251,"lat":48.8513},"nom_arrondissement_communes":"Paris","code_insee_commune":"75056"},{"stationcode":"17026","name":"Jouffroy d'Abbans - Wagram","is_installed":"OUI","capacity":40,"numdocksavailable":39,"numbikesavailable":1,"mechanical":1,"ebike":0,"is_renting":"OUI","is_returning":"OUI","duedate":"2024-11-10T16:14:42+01:00","coordonnees_geo":{"lon":2.3011,"lat":48.882},"nom_arrondissement_communes":"Paris","code_insee_commune":"75056"},{"stationcode":"17041","name":"Guersant - Gouvion-Saint-Cyr","is_installed":"OUI","capacity":36,"numdocksavailable":32,"numbikesavailable":3,"mechanical":2,"ebike":1,"is_renting":"OUI","is_returning":"OUI","duedate":"2024-11-10T16:15:10+01:00","coordonnees_geo":{"lon":2.2877,"lat":48.8829},"nom_arrondissement_communes":"Paris","code_insee_commune":"75056"},{"stationcode":"6021","name":"Beaux-Arts - Bonaparte","is_installed":"OUI","capacity":20,"numdocksavailable":14,"numbikesavailable":6,"mechanical":3,"ebike":3,"is_renting":"OUI","is_returning":"OUI","duedate":"2024-11-10T16:15:33+01:00","coordonnees_geo":{"lon":2.3349,"lat":48.8565},"nom_arrondissement_communes":"Paris","code_insee_commune":"75056"},{"stationcode":"5016","name":"Thouin - Cardinal Lemoine","is_installed":"OUI","capacity":17,"numdocksavailable":16,"numbikesavailable":1,"mechanical":1,"ebike":0,"is_renting":"OUI","is_returning":"OUI","duedate":"2024-11-10T16:15:47+01:00","coordonnees_geo":{"lon":2.3495,"lat":48.845},"nom_arrondissement_communes":"Paris","code_insee_commune":"75056"},{"stationcode":"12109","name":"Mairie du 12ème","is_installed":"OUI","capacity":30,"numdocksavailable":5,"numbikesavailable":24,"mechanical":18,"ebike":6,"is_renting":"OUI","is_returning":"OUI","duedate":"2024-11-10T16:14:21+01:00","coordonnees_geo":{"lon":2.3876,"lat":48.8409},"nom_arrondissement_communes":"Paris","code_insee_commune":"75056"},{"stationcode":"11025","name":"Froment - Bréguet","is_installed":"OUI","capacity":43,"numdocksavailable":10,"numbikesavailable":31,"mechanical":26,"ebike":5,"is_renting":"OUI","is_returning":"OUI","duedate":"2024-11-10T16:15:50+01:00","coordonnees_geo":{"lon":2.3729,"lat":48.857},"nom_arrondissement_communes":"Paris","code_insee_commune":"75056"},{"stationcode":"13101","name":"Croulebarde - Corvisart","is_installed":"OUI","capacity":34,"numdocksavailable":28,"numbikesavailable":5,"mechanical":2,"ebike":3,"is_renting":"OUI","is_returning":"OUI","duedate":"2024-11-10T16:13:33+01:00","coordonnees_geo":{"lon":2.3482,"lat":48.831},"nom_arrondissement_communes":"Paris","code_insee_commune":"75056"},{"stationcode":"32304","name":"Charcot - Benfleet","is_installed":"OUI","capacity":28,"numdocksavailable":24,"numbikesavailable":4,"mechanical":0,"ebike":4,"is_renting":"OUI","is_returning":"OUI","duedate":"2024-11-10T16:14:24+01:00","coordonnees_geo":{"lon":2.4405,"lat":48.8784},"nom_arrondissement_communes":"Romainville","code_insee_commune":"93063"},{"stationcode":"14108","name":"Le Brix et Mesmin - Jourdan","is_installed":"OUI","capacity":21,"numdocksavailable":14,"numbikesavailable":7,"mechanical":7,"ebike":0,"is_renting":"OUI","is_returning":"OUI","duedate":"2024-11-10T16:14:59+01:00","coordonnees_geo":{"lon":2.3279,"lat":48.8223},"nom_arrondissement_communes":"Paris","code_insee_commune":"75056"},{"stationcode":"15202","name":"Bracion - Périphérique","is_installed":"OUI","capacity":30,"numdocksavailable":14,"numbikesavailable":15,"mechanical":4,"ebike":11,"is_renting":"OUI","is_returning":"OUI","duedate":"2024-11-10T16:11:21+01:00","coordonnees_geo":{"lon":2.3005,"lat":48.8261},"nom_arrondissement_communes":"Paris","code_insee_commune":"75056"},{"stationcode":"31024","name":"Romainville - Vaillant-Couturier","is_installed":"OUI","capacity":38,"numdocksavailable":35,"numbikesavailable":2,"mechanical":1,"ebike":1,"is_renting":"OUI","is_returning":"OUI","duedate":"2024-11-10T16:15:48+01:00","coordonnees_geo":{"lon":2.4467,"lat":48.8678},"nom_arrondissement_communes":"Montreuil","code_insee_commune":"93048"},{"stationcode":"8050","name":"Boétie - Ponthieu","is_installed":"OUI","capacity":45,"numdocksavailable":16,"numbikesavailable":28,"mechanical":15,"ebike":13,"is_renting":"OUI","is_returning":"OUI","duedate":"2024-11-10T16:14:13+01:00","coordonnees_geo":{"lon":2.3077,"lat":48.8714},"nom_arrondissement_communes":"Paris","code_insee_commune":"75056"},{"stationcode":"40016","name":"Sarrazins - Saussure","is_installed":"NON","capacity":1,"numdocksavailable":1,"numbikesavailable":0,"mechanical":0,"ebike":0,"is_renting":"NON","is_returning":"NON","duedate":"2024-08-29T13:11:05+02:00","coordonnees_geo":{"lon":2.4712,"lat":48.7685},"nom_arrondissement_communes":"Créteil","code_insee_commune":"94028"},{"stationcode":"17044","name":"Porte de Saint-Ouen - Bessières","is_installed":"OUI","capacity":42,"numdocksavailable":33,"numbikesavailable":8,"mechanical":8,"ebike":0,"is_renting":"OUI","is_returning":"OUI","duedate":"2024-11-10T16:13:46+01:00","coordonnees_geo":{"lon":2.3285,"lat":48.8979},"nom_arrondissement_communes":"Paris","code_insee_commune":"75056"},{"stationcode":"2022","name":"Saint-Fiacre - Poissonière","is_installed":"OUI","capacity":35,"numdocksavailable":29,"numbikesavailable":5,"mechanical":4,"ebike":1,"is_renting":"OUI","is_returning":"OUI","duedate":"2024-11-10T16:13:32+01:00","coordonnees_geo":{"lon":2.3459,"lat":48.8708},"nom_arrondissement_communes":"Paris","code_insee_commune":"75056"},{"stationcode":"43002","name":"Lagny - Victor Basch","is_installed":"OUI","capacity":26,"numdocksavailable":18,"numbikesavailable":8,"mechanical":7,"ebike":1,"is_renting":"OUI","is_returning":"OUI","duedate":"2024-11-10T16:09:32+01:00","coordonnees_geo":{"lon":2.4263,"lat":48.8488},"nom_arrondissement_communes":"Vincennes","code_insee_commune":"94080"},{"stationcode":"19033","name":"Cambrai - Benjamin Constant","is_installed":"OUI","capacity":43,"numdocksavailable":25,"numbikesavailable":18,"mechanical":9,"ebike":9,"is_renting":"OUI","is_returning":"OUI","duedate":"2024-11-10T16:12:51+01:00","coordonnees_geo":{"lon":2.3811,"lat":48.8959},"nom_arrondissement_communes":"Paris","code_insee_commune":"75056"},{"stationcode":"15068","name":"Général Martial Valin - Pont du Garigliano","is_installed":"OUI","capacity":16,"numdocksavailable":10,"numbikesavailable":6,"mechanical":2,"ebike":4,"is_renting":"OUI","is_returning":"OUI","duedate":"2024-11-10T16:12:21+01:00","coordonnees_geo":{"lon":2.2705,"lat":48.8382},"nom_arrondissement_communes":"Paris","code_insee_commune":"75056"},{"stationcode":"17025","name":"Chazelles - Courcelles","is_installed":"OUI","capacity":35,"numdocksavailable":33,"numbikesavailable":2,"mechanical":2,"ebike":0,"is_renting":"OUI","is_returning":"OUI","duedate":"2024-11-10T16:12:55+01:00","coordonnees_geo":{"lon":2.3034,"lat":48.8794},"nom_arrondissement_communes":"Paris","code_insee_commune":"75056"},{"stationcode":"22207","name":"Rond-point du Dr Albert Schweitzer","is_installed":"OUI","capacity":22,"numdocksavailable":14,"numbikesavailable":8,"mechanical":5,"ebike":3,"is_renting":"OUI","is_returning":"OUI","duedate":"2024-11-10T16:15:22+01:00","coordonnees_geo":{"lon":2.3144,"lat":48.7898},"nom_arrondissement_communes":"Bagneux","code_insee_commune":"92007"},{"stationcode":"21326","name":"Moulin de Pierre - Abbé Grégoire","is_installed":"OUI","capacity":20,"numdocksavailable":10,"numbikesavailable":10,"mechanical":5,"ebike":5,"is_renting":"OUI","is_returning":"OUI","duedate":"2024-11-10T16:14:18+01:00","coordonnees_geo":{"lon":2.2755,"lat":48.822},"nom_arrondissement_communes":"Issy-les-Moulineaux","code_insee_commune":"92040"},{"stationcode":"92002","name":"Théâtre des Amandiers - Palais des sports","is_installed":"OUI","capacity":23,"numdocksavailable":4,"numbikesavailable":19,"mechanical":1,"ebike":18,"is_renting":"OUI","is_returning":"OUI","duedate":"2024-11-10T16:14:56+01:00","coordonnees_geo":{"lon":2.2137,"lat":48.8926},"nom_arrondissement_communes":"Nanterre","code_insee_commune":"92050"},{"stationcode":"20143","name":"Ramponeau - Belleville","is_installed":"OUI","capacity":44,"numdocksavailable":35,"numbikesavailable":7,"mechanical":5,"ebike":2,"is_renting":"OUI","is_returning":"OUI","duedate":"2024-11-10T16:14:25+01:00","coordonnees_geo":{"lon":2.3791,"lat":48.871},"nom_arrondissement_communes":"Paris","code_insee_commune":"75056"},{"stationcode":"19027","name":"Serrurier","is_installed":"OUI","capacity":18,"numdocksavailable":15,"numbikesavailable":3,"mechanical":0,"ebike":3,"is_renting":"OUI","is_returning":"OUI","duedate":"2024-11-10T16:07:40+01:00","coordonnees_geo":{"lon":2.3981,"lat":48.8805},"nom_arrondissement_communes":"Paris","code_insee_commune":"75056"},{"stationcode":"16138","name":"Saint-Cloud - Hippodrome","is_installed":"OUI","capacity":30,"numdocksavailable":22,"numbikesavailable":7,"mechanical":5,"ebike":2,"is_renting":"OUI","is_returning":"OUI","duedate":"2024-11-10T16:15:33+01:00","coordonnees_geo":{"lon":2.2549,"lat":48.8577},"nom_arrondissement_communes":"Paris","code_insee_commune":"75056"},{"stationcode":"17048","name":"De Toqueville - Terrasse","is_installed":"OUI","capacity":30,"numdocksavailable":29,"numbikesavailable":1,"mechanical":1,"ebike":0,"is_renting":"OUI","is_returning":"OUI","duedate":"2024-11-10T16:07:47+01:00","coordonnees_geo":{"lon":2.314,"lat":48.8824},"nom_arrondissement_communes":"Paris","code_insee_commune":"75056"},{"stationcode":"21216","name":"Louis Lejeune - Barbès","is_installed":"OUI","capacity":25,"numdocksavailable":23,"numbikesavailable":2,"mechanical":1,"ebike":1,"is_renting":"OUI","is_returning":"OUI","duedate":"2024-11-10T16:06:08+01:00","coordonnees_geo":{"lon":2.3267,"lat":48.8181},"nom_arrondissement_communes":"Montrouge","code_insee_commune":"92049"},{"stationcode":"10013","name":"Alibert - Jemmapes","is_installed":"OUI","capacity":60,"numdocksavailable":54,"numbikesavailable":4,"mechanical":2,"ebike":2,"is_renting":"OUI","is_returning":"OUI","duedate":"2024-11-10T16:14:52+01:00","coordonnees_geo":{"lon":2.3661,"lat":48.871},"nom_arrondissement_communes":"Paris","code_insee_commune":"75056"},{"stationcode":"31028","name":"Raspail Barbès","is_installed":"OUI","capacity":28,"numdocksavailable":27,"numbikesavailable":0,"mechanical":0,"ebike":0,"is_renting":"OUI","is_returning":"OUI","duedate":"2024-11-10T16:11:57+01:00","coordonnees_geo":{"lon":2.4247,"lat":48.853},"nom_arrondissement_communes":"Montreuil","code_insee_commune":"93048"},{"stationcode":"8103","name":"Artois - Berri","is_installed":"OUI","capacity":23,"numdocksavailable":12,"numbikesavailable":10,"mechanical":7,"ebike":3,"is_renting":"OUI","is_returning":"OUI","duedate":"2024-11-10T16:13:43+01:00","coordonnees_geo":{"lon":2.3064,"lat":48.8739},"nom_arrondissement_communes":"Paris","code_insee_commune":"75056"},{"stationcode":"44017","name":"Jules Guesde - Pont du Port à l'Anglais","is_installed":"OUI","capacity":30,"numdocksavailable":15,"numbikesavailable":14,"mechanical":11,"ebike":3,"is_renting":"OUI","is_returning":"OUI","duedate":"2024-11-10T16:13:14+01:00","coordonnees_geo":{"lon":2.4172,"lat":48.7963},"nom_arrondissement_communes":"Vitry-sur-Seine","code_insee_commune":"94081"},{"stationcode":"8048","name":"Marceau - Chaillot","is_installed":"OUI","capacity":21,"numdocksavailable":16,"numbikesavailable":5,"mechanical":2,"ebike":3,"is_renting":"OUI","is_returning":"OUI","duedate":"2024-11-10T16:13:38+01:00","coordonnees_geo":{"lon":2.2986,"lat":48.8688},"nom_arrondissement_communes":"Paris","code_insee_commune":"75056"},{"stationcode":"16118","name":"Michel-Ange - Parent de Rosan","is_installed":"OUI","capacity":26,"numdocksavailable":20,"numbikesavailable":5,"mechanical":5,"ebike":0,"is_renting":"OUI","is_returning":"OUI","duedate":"2024-11-10T16:11:23+01:00","coordonnees_geo":{"lon":2.2584,"lat":48.8406},"nom_arrondissement_communes":"Paris","code_insee_commune":"75056"},{"stationcode":"15112","name":"Vigée-Lebrun - Anselme Payen","is_installed":"OUI","capacity":24,"numdocksavailable":22,"numbikesavailable":2,"mechanical":1,"ebike":1,"is_renting":"OUI","is_returning":"OUI","duedate":"2024-11-10T16:10:40+01:00","coordonnees_geo":{"lon":2.311,"lat":48.8387},"nom_arrondissement_communes":"Paris","code_insee_commune":"75056"},{"stationcode":"2017","name":"Caire - Dussoubs","is_installed":"OUI","capacity":40,"numdocksavailable":16,"numbikesavailable":24,"mechanical":18,"ebike":6,"is_renting":"OUI","is_returning":"OUI","duedate":"2024-11-10T16:13:17+01:00","coordonnees_geo":{"lon":2.3494,"lat":48.8679},"nom_arrondissement_communes":"Paris","code_insee_commune":"75056"},{"stationcode":"18111","name":"Félix Ziem - Armand Gauthier","is_installed":"OUI","capacity":25,"numdocksavailable":23,"numbikesavailable":2,"mechanical":1,"ebike":1,"is_renting":"OUI","is_returning":"OUI","duedate":"2024-11-10T16:14:50+01:00","coordonnees_geo":{"lon":2.3334,"lat":48.8895},"nom_arrondissement_communes":"Paris","code_insee_commune":"75056"},{"stationcode":"9008","name":"Tour d'Auvergne - Rodier","is_installed":"OUI","capacity":17,"numdocksavailable":15,"numbikesavailable":1,"mechanical":0,"ebike":1,"is_renting":"OUI","is_returning":"OUI","duedate":"2024-11-10T16:15:40+01:00","coordonnees_geo":{"lon":2.3437,"lat":48.8792},"nom_arrondissement_communes":"Paris","code_insee_commune":"75056"},{"stationcode":"9002","name":"Abbeville - Faubourg Poissonnière","is_installed":"OUI","capacity":14,"numdocksavailable":13,"numbikesavailable":1,"mechanical":0,"ebike":1,"is_renting":"OUI","is_returning":"OUI","duedate":"2024-11-10T16:11:09+01:00","coordonnees_geo":{"lon":2.3491,"lat":48.8792},"nom_arrondissement_communes":"Paris","code_insee_commune":"75056"},{"stationcode":"14013","name":"Liard - Amiral Mouchez","is_installed":"OUI","capacity":28,"numdocksavailable":18,"numbikesavailable":9,"mechanical":7,"ebike":2,"is_renting":"OUI","is_returning":"OUI","duedate":"2024-11-10T16:15:13+01:00","coordonnees_geo":{"lon":2.3422,"lat":48.8214},"nom_arrondissement_communes":"Paris","code_insee_commune":"75056"},{"stationcode":"16110","name":"Octave Feuillet - Albéric Magnard","is_installed":"OUI","capacity":21,"numdocksavailable":21,"numbikesavailable":0,"mechanical":0,"ebike":0,"is_renting":"OUI","is_returning":"OUI","duedate":"2024-11-10T16:12:47+01:00","coordonnees_geo":{"lon":2.273,"lat":48.8611},"nom_arrondissement_communes":"Paris","code_insee_commune":"75056"},{"stationcode":"13118","name":"Regnault - Patay","is_installed":"OUI","capacity":63,"numdocksavailable":10,"numbikesavailable":53,"mechanical":48,"ebike":5,"is_renting":"OUI","is_returning":"OUI","duedate":"2024-11-10T16:15:25+01:00","coordonnees_geo":{"lon":2.3771,"lat":48.8244},"nom_arrondissement_communes":"Paris","code_insee_commune":"75056"},{"stationcode":"43009","name":"Place Jean-Spire-Lemaître","is_installed":"OUI","capacity":50,"numdocksavailable":46,"numbikesavailable":4,"mechanical":0,"ebike":4,"is_renting":"OUI","is_returning":"OUI","duedate":"2024-11-10T16:13:53+01:00","coordonnees_geo":{"lon":2.4521,"lat":48.8468},"nom_arrondissement_communes":"Vincennes","code_insee_commune":"94080"},{"stationcode":"13030","name":"Italie - Tolbiac","is_installed":"OUI","capacity":21,"numdocksavailable":16,"numbikesavailable":5,"mechanical":3,"ebike":2,"is_renting":"OUI","is_returning":"OUI","duedate":"2024-11-10T16:15:08+01:00","coordonnees_geo":{"lon":2.3576,"lat":48.8256},"nom_arrondissement_communes":"Paris","code_insee_commune":"75056"},{"stationcode":"17032","name":"Jean Oestreicher - Porte de Champerret","is_installed":"OUI","capacity":21,"numdocksavailable":20,"numbikesavailable":1,"mechanical":1,"ebike":0,"is_renting":"OUI","is_returning":"OUI","duedate":"2024-11-10T16:14:35+01:00","coordonnees_geo":{"lon":2.2886,"lat":48.8866},"nom_arrondissement_communes":"Paris","code_insee_commune":"75056"},{"stationcode":"48003","name":"Youri Gagarine - Karl Marx","is_installed":"OUI","capacity":22,"numdocksavailable":19,"numbikesavailable":3,"mechanical":0,"ebike":3,"is_renting":"OUI","is_returning":"OUI","duedate":"2024-11-10T16:12:44+01:00","coordonnees_geo":{"lon":2.3591,"lat":48.7845},"nom_arrondissement_communes":"Villejuif","code_insee_commune":"94076"},{"stationcode":"8016","name":"Square Louis XVI","is_installed":"OUI","capacity":29,"numdocksavailable":12,"numbikesavailable":16,"mechanical":9,"ebike":7,"is_renting":"OUI","is_returning":"OUI","duedate":"2024-11-10T16:10:33+01:00","coordonnees_geo":{"lon":2.3237,"lat":48.8732},"nom_arrondissement_communes":"Paris","code_insee_commune":"75056"},{"stationcode":"9001","name":"Bellefond - Poissonnière","is_installed":"OUI","capacity":17,"numdocksavailable":14,"numbikesavailable":3,"mechanical":1,"ebike":2,"is_renting":"OUI","is_returning":"OUI","duedate":"2024-11-10T16:11:42+01:00","coordonnees_geo":{"lon":2.3485,"lat":48.8776},"nom_arrondissement_communes":"Paris","code_insee_commune":"75056"},{"stationcode":"10115","name":"Granges aux Belles","is_installed":"OUI","capacity":27,"numdocksavailable":25,"numbikesavailable":2,"mechanical":1,"ebike":1,"is_renting":"OUI","is_returning":"OUI","duedate":"2024-11-10T16:15:31+01:00","coordonnees_geo":{"lon":2.3681,"lat":48.8761},"nom_arrondissement_communes":"Paris","code_insee_commune":"75056"},{"stationcode":"10029","name":"Dunkerque - Rocroy","is_installed":"OUI","capacity":24,"numdocksavailable":21,"numbikesavailable":2,"mechanical":0,"ebike":2,"is_renting":"OUI","is_returning":"OUI","duedate":"2024-11-10T16:11:53+01:00","coordonnees_geo":{"lon":2.3515,"lat":48.8807},"nom_arrondissement_communes":"Paris","code_insee_commune":"75056"},{"stationcode":"10161","name":"Gare de l'Est - Faubourg-Saint-Martin","is_installed":"OUI","capacity":32,"numdocksavailable":25,"numbikesavailable":7,"mechanical":3,"ebike":4,"is_renting":"OUI","is_returning":"OUI","duedate":"2024-11-10T16:14:43+01:00","coordonnees_geo":{"lon":2.3595,"lat":48.8756},"nom_arrondissement_communes":"Paris","code_insee_commune":"75056"},{"stationcode":"41303","name":"Gare de Nogent-le-Perreux","is_installed":"OUI","capacity":32,"numdocksavailable":3,"numbikesavailable":28,"mechanical":16,"ebike":12,"is_renting":"OUI","is_returning":"OUI","duedate":"2024-11-10T16:13:59+01:00","coordonnees_geo":{"lon":2.4937,"lat":48.8384},"nom_arrondissement_communes":"Nogent-sur-Marne","code_insee_commune":"94052"},{"stationcode":"12031","name":"Gabriel Lamé","is_installed":"OUI","capacity":36,"numdocksavailable":4,"numbikesavailable":32,"mechanical":24,"ebike":8,"is_renting":"OUI","is_returning":"OUI","duedate":"2024-11-10T16:14:23+01:00","coordonnees_geo":{"lon":2.3855,"lat":48.8351},"nom_arrondissement_communes":"Paris","code_insee_commune":"75056"},{"stationcode":"5022","name":"Boulangers - Cardinal Lemoine","is_installed":"OUI","capacity":20,"numdocksavailable":12,"numbikesavailable":8,"mechanical":0,"ebike":8,"is_renting":"OUI","is_returning":"OUI","duedate":"2024-11-10T16:15:15+01:00","coordonnees_geo":{"lon":2.3521,"lat":48.8463},"nom_arrondissement_communes":"Paris","code_insee_commune":"75056"},{"stationcode":"21328","name":"Verger - Colonel Guichard","is_installed":"OUI","capacity":29,"numdocksavailable":23,"numbikesavailable":6,"mechanical":1,"ebike":5,"is_renting":"OUI","is_returning":"OUI","duedate":"2024-11-10T16:06:31+01:00","coordonnees_geo":{"lon":2.267,"lat":48.8164},"nom_arrondissement_communes":"Issy-les-Moulineaux","code_insee_commune":"92040"},{"stationcode":"9038","name":"Douai - Bruxelles","is_installed":"OUI","capacity":27,"numdocksavailable":22,"numbikesavailable":3,"mechanical":1,"ebike":2,"is_renting":"OUI","is_returning":"OUI","duedate":"2024-11-10T16:13:30+01:00","coordonnees_geo":{"lon":2.3308,"lat":48.8832},"nom_arrondissement_communes":"Paris","code_insee_commune":"75056"},{"stationcode":"21323","name":"Charlot - Stade Gabriel Voisin","is_installed":"OUI","capacity":31,"numdocksavailable":2,"numbikesavailable":27,"mechanical":21,"ebike":6,"is_renting":"OUI","is_returning":"OUI","duedate":"2024-11-10T16:14:26+01:00","coordonnees_geo":{"lon":2.2681,"lat":48.8272},"nom_arrondissement_communes":"Issy-les-Moulineaux","code_insee_commune":"92040"},{"stationcode":"18203","name":"Lamarck - Saint-Ouen","is_installed":"OUI","capacity":40,"numdocksavailable":40,"numbikesavailable":0,"mechanical":0,"ebike":0,"is_renting":"NON","is_returning":"NON","duedate":"2024-11-10T16:08:07+01:00","coordonnees_geo":{"lon":2.3272,"lat":48.8913},"nom_arrondissement_communes":"Paris","code_insee_commune":"75056"},{"stationcode":"17040","name":"Pereire - Ternes","is_installed":"OUI","capacity":48,"numdocksavailable":31,"numbikesavailable":16,"mechanical":15,"ebike":1,"is_renting":"OUI","is_returning":"OUI","duedate":"2024-11-10T16:14:07+01:00","coordonnees_geo":{"lon":2.288,"lat":48.8797},"nom_arrondissement_communes":"Paris","code_insee_commune":"75056"},{"stationcode":"8009","name":"Gare Saint-Lazare - Isly","is_installed":"OUI","capacity":27,"numdocksavailable":2,"numbikesavailable":24,"mechanical":17,"ebike":7,"is_renting":"OUI","is_returning":"OUI","duedate":"2024-11-10T16:13:42+01:00","coordonnees_geo":{"lon":2.3265,"lat":48.8748},"nom_arrondissement_communes":"Paris","code_insee_commune":"75056"},{"stationcode":"17008","name":"Porte Pouchet-Bessières","is_installed":"OUI","capacity":23,"numdocksavailable":19,"numbikesavailable":4,"mechanical":3,"ebike":1,"is_renting":"OUI","is_returning":"OUI","duedate":"2024-11-10T16:15:10+01:00","coordonnees_geo":{"lon":2.3231,"lat":48.8979},"nom_arrondissement_communes":"Paris","code_insee_commune":"75056"},{"stationcode":"31103","name":"Gare Rosny-Bois-Perrier","is_installed":"OUI","capacity":36,"numdocksavailable":22,"numbikesavailable":10,"mechanical":0,"ebike":10,"is_renting":"OUI","is_returning":"OUI","duedate":"2024-11-10T16:15:25+01:00","coordonnees_geo":{"lon":2.4804,"lat":48.8812},"nom_arrondissement_communes":"Rosny-sous-Bois","code_insee_commune":"93064"},{"stationcode":"1001","name":"Quai de l'Horloge - Pont Neuf","is_installed":"OUI","capacity":17,"numdocksavailable":4,"numbikesavailable":13,"mechanical":7,"ebike":6,"is_renting":"OUI","is_returning":"OUI","duedate":"2024-11-10T16:13:20+01:00","coordonnees_geo":{"lon":2.3418,"lat":48.8571},"nom_arrondissement_communes":"Paris","code_insee_commune":"75056"},{"stationcode":"7018","name":"Ségur - d'Estrées","is_installed":"OUI","capacity":19,"numdocksavailable":12,"numbikesavailable":4,"mechanical":4,"ebike":0,"is_renting":"OUI","is_returning":"OUI","duedate":"2024-11-10T16:12:42+01:00","coordonnees_geo":{"lon":2.3097,"lat":48.8514},"nom_arrondissement_communes":"Paris","code_insee_commune":"75056"},{"stationcode":"13104","name":"Gare d'Austerlitz - Quai Saint-Bernard","is_installed":"NON","capacity":27,"numdocksavailable":27,"numbikesavailable":0,"mechanical":0,"ebike":0,"is_renting":"NON","is_returning":"NON","duedate":"2024-11-10T16:15:34+01:00","coordonnees_geo":{"lon":2.3657,"lat":48.8437},"nom_arrondissement_communes":"Paris","code_insee_commune":"75056"},{"stationcode":"5005","name":"Gay Lussac - Saint-Jacques","is_installed":"OUI","capacity":24,"numdocksavailable":19,"numbikesavailable":4,"mechanical":3,"ebike":1,"is_renting":"OUI","is_returning":"OUI","duedate":"2024-11-10T16:14:45+01:00","coordonnees_geo":{"lon":2.3419,"lat":48.8447},"nom_arrondissement_communes":"Paris","code_insee_commune":"75056"},{"stationcode":"31706","name":"Château - République","is_installed":"OUI","capacity":26,"numdocksavailable":18,"numbikesavailable":8,"mechanical":1,"ebike":7,"is_renting":"OUI","is_returning":"OUI","duedate":"2024-11-10T16:07:15+01:00","coordonnees_geo":{"lon":2.4155,"lat":48.8629},"nom_arrondissement_communes":"Bagnolet","code_insee_commune":"93006"},{"stationcode":"8053","name":"Place Georges Guillaumin","is_installed":"OUI","capacity":29,"numdocksavailable":23,"numbikesavailable":4,"mechanical":0,"ebike":4,"is_renting":"OUI","is_returning":"OUI","duedate":"2024-11-10T16:11:00+01:00","coordonnees_geo":{"lon":2.3018,"lat":48.8748},"nom_arrondissement_communes":"Paris","code_insee_commune":"75056"},{"stationcode":"19015","name":"Thionville - Ourcq","is_installed":"OUI","capacity":24,"numdocksavailable":21,"numbikesavailable":2,"mechanical":0,"ebike":2,"is_renting":"OUI","is_returning":"OUI","duedate":"2024-11-10T16:15:10+01:00","coordonnees_geo":{"lon":2.3834,"lat":48.8892},"nom_arrondissement_communes":"Paris","code_insee_commune":"75056"},{"stationcode":"9014","name":"Faubourg Montmartre - La Fayette","is_installed":"OUI","capacity":35,"numdocksavailable":28,"numbikesavailable":4,"mechanical":1,"ebike":3,"is_renting":"OUI","is_returning":"OUI","duedate":"2024-11-10T16:15:24+01:00","coordonnees_geo":{"lon":2.3409,"lat":48.8753},"nom_arrondissement_communes":"Paris","code_insee_commune":"75056"},{"stationcode":"9022","name":"Rossini - Laffitte","is_installed":"OUI","capacity":33,"numdocksavailable":28,"numbikesavailable":5,"mechanical":4,"ebike":1,"is_renting":"OUI","is_returning":"OUI","duedate":"2024-11-10T16:11:29+01:00","coordonnees_geo":{"lon":2.338,"lat":48.8733},"nom_arrondissement_communes":"Paris","code_insee_commune":"75056"},{"stationcode":"9106","name":"Boudreau - Auber","is_installed":"OUI","capacity":28,"numdocksavailable":1,"numbikesavailable":27,"mechanical":13,"ebike":14,"is_renting":"OUI","is_returning":"OUI","duedate":"2024-11-10T16:14:52+01:00","coordonnees_geo":{"lon":2.3294,"lat":48.8722},"nom_arrondissement_communes":"Paris","code_insee_commune":"75056"},{"stationcode":"17004","name":"Legendre - Clichy","is_installed":"OUI","capacity":40,"numdocksavailable":38,"numbikesavailable":2,"mechanical":0,"ebike":2,"is_renting":"OUI","is_returning":"OUI","duedate":"2024-11-10T16:12:10+01:00","coordonnees_geo":{"lon":2.3225,"lat":48.889},"nom_arrondissement_communes":"Paris","code_insee_commune":"75056"},{"stationcode":"19105","name":"Ambroise Rendu - Porte Brunet","is_installed":"OUI","capacity":17,"numdocksavailable":16,"numbikesavailable":1,"mechanical":1,"ebike":0,"is_renting":"OUI","is_returning":"OUI","duedate":"2024-11-10T16:11:20+01:00","coordonnees_geo":{"lon":2.3957,"lat":48.8837},"nom_arrondissement_communes":"Paris","code_insee_commune":"75056"},{"stationcode":"19003","name":"Quai de la Seine","is_installed":"OUI","capacity":24,"numdocksavailable":13,"numbikesavailable":10,"mechanical":3,"ebike":7,"is_renting":"OUI","is_returning":"OUI","duedate":"2024-11-10T16:15:47+01:00","coordonnees_geo":{"lon":2.3704,"lat":48.8845},"nom_arrondissement_communes":"Paris","code_insee_commune":"75056"},{"stationcode":"22409","name":"Henri Barbusse - Stalingrad","is_installed":"OUI","capacity":16,"numdocksavailable":15,"numbikesavailable":1,"mechanical":0,"ebike":1,"is_renting":"OUI","is_returning":"OUI","duedate":"2024-11-10T16:11:28+01:00","coordonnees_geo":{"lon":2.2873,"lat":48.8142},"nom_arrondissement_communes":"Malakoff","code_insee_commune":"92046"},{"stationcode":"8036","name":"Lisbonne - Monceau","is_installed":"OUI","capacity":33,"numdocksavailable":31,"numbikesavailable":1,"mechanical":1,"ebike":0,"is_renting":"OUI","is_returning":"OUI","duedate":"2024-11-10T16:15:44+01:00","coordonnees_geo":{"lon":2.3097,"lat":48.8775},"nom_arrondissement_communes":"Paris","code_insee_commune":"75056"},{"stationcode":"26003","name":"Argenteuil - Voltaire","is_installed":"OUI","capacity":16,"numdocksavailable":13,"numbikesavailable":3,"mechanical":0,"ebike":3,"is_renting":"OUI","is_returning":"OUI","duedate":"2024-11-10T16:14:19+01:00","coordonnees_geo":{"lon":2.2814,"lat":48.9186},"nom_arrondissement_communes":"Asnières-sur-Seine","code_insee_commune":"92004"},{"stationcode":"92007","name":"Pesaro - Préfecture","is_installed":"OUI","capacity":22,"numdocksavailable":18,"numbikesavailable":4,"mechanical":0,"ebike":4,"is_renting":"OUI","is_returning":"OUI","duedate":"2024-11-10T16:13:47+01:00","coordonnees_geo":{"lon":2.2239,"lat":48.8958},"nom_arrondissement_communes":"Nanterre","code_insee_commune":"92050"},{"stationcode":"12151","name":"Gare de Lyon - Place Louis Armand","is_installed":"OUI","capacity":60,"numdocksavailable":25,"numbikesavailable":33,"mechanical":25,"ebike":8,"is_renting":"OUI","is_returning":"OUI","duedate":"2024-11-10T16:15:37+01:00","coordonnees_geo":{"lon":2.3726,"lat":48.8455},"nom_arrondissement_communes":"Paris","code_insee_commune":"75056"},{"stationcode":"16026","name":"Ranelagh - Mozart","is_installed":"OUI","capacity":6,"numdocksavailable":4,"numbikesavailable":0,"mechanical":0,"ebike":0,"is_renting":"OUI","is_returning":"OUI","duedate":"2024-11-10T16:06:54+01:00","coordonnees_geo":{"lon":2.2704,"lat":48.8554},"nom_arrondissement_communes":"Paris","code_insee_commune":"75056"},{"stationcode":"9028","name":"Moncey - Blanche","is_installed":"OUI","capacity":17,"numdocksavailable":13,"numbikesavailable":4,"mechanical":0,"ebike":4,"is_renting":"OUI","is_returning":"OUI","duedate":"2024-11-10T16:15:33+01:00","coordonnees_geo":{"lon":2.3311,"lat":48.8801},"nom_arrondissement_communes":"Paris","code_insee_commune":"75056"},{"stationcode":"10107","name":"Gare du Nord - Hôpital Lariboisière","is_installed":"OUI","capacity":49,"numdocksavailable":47,"numbikesavailable":2,"mechanical":0,"ebike":2,"is_renting":"OUI","is_returning":"OUI","duedate":"2024-11-10T16:14:40+01:00","coordonnees_geo":{"lon":2.3523,"lat":48.8819},"nom_arrondissement_communes":"Paris","code_insee_commune":"75056"},{"stationcode":"26002","name":"Redoute - Les Courtilles","is_installed":"OUI","capacity":40,"numdocksavailable":14,"numbikesavailable":25,"mechanical":20,"ebike":5,"is_renting":"OUI","is_returning":"OUI","duedate":"2024-11-10T16:14:11+01:00","coordonnees_geo":{"lon":2.2837,"lat":48.9299},"nom_arrondissement_communes":"Asnières-sur-Seine","code_insee_commune":"92004"},{"stationcode":"11002","name":"Roquette - Thiéré","is_installed":"OUI","capacity":23,"numdocksavailable":9,"numbikesavailable":14,"mechanical":12,"ebike":2,"is_renting":"OUI","is_returning":"OUI","duedate":"2024-11-10T16:13:38+01:00","coordonnees_geo":{"lon":2.3734,"lat":48.8551},"nom_arrondissement_communes":"Paris","code_insee_commune":"75056"},{"stationcode":"17043","name":"Belidor - Gouvion-Saint-Cyr","is_installed":"OUI","capacity":39,"numdocksavailable":30,"numbikesavailable":7,"mechanical":6,"ebike":1,"is_renting":"OUI","is_returning":"OUI","duedate":"2024-11-10T16:11:31+01:00","coordonnees_geo":{"lon":2.2855,"lat":48.8802},"nom_arrondissement_communes":"Paris","code_insee_commune":"75056"},{"stationcode":"11047","name":"Amelot - Saint-Sébastien","is_installed":"OUI","capacity":30,"numdocksavailable":5,"numbikesavailable":24,"mechanical":17,"ebike":7,"is_renting":"OUI","is_returning":"OUI","duedate":"2024-11-10T16:15:50+01:00","coordonnees_geo":{"lon":2.3678,"lat":48.8611},"nom_arrondissement_communes":"Paris","code_insee_commune":"75056"},{"stationcode":"19026","name":"Place de Rhin et Danube","is_installed":"OUI","capacity":17,"numdocksavailable":13,"numbikesavailable":1,"mechanical":0,"ebike":1,"is_renting":"OUI","is_returning":"OUI","duedate":"2024-11-10T16:12:22+01:00","coordonnees_geo":{"lon":2.3926,"lat":48.8819},"nom_arrondissement_communes":"Paris","code_insee_commune":"75056"},{"stationcode":"19043","name":"Delphine Seyrig - Général Leclerc","is_installed":"OUI","capacity":53,"numdocksavailable":30,"numbikesavailable":21,"mechanical":3,"ebike":18,"is_renting":"OUI","is_returning":"OUI","duedate":"2024-11-10T16:12:44+01:00","coordonnees_geo":{"lon":2.3979,"lat":48.8939},"nom_arrondissement_communes":"Pantin","code_insee_commune":"93055"},{"stationcode":"16039","name":"Exelmans - Versailles","is_installed":"OUI","capacity":49,"numdocksavailable":19,"numbikesavailable":29,"mechanical":28,"ebike":1,"is_renting":"OUI","is_returning":"OUI","duedate":"2024-11-10T16:15:46+01:00","coordonnees_geo":{"lon":2.2644,"lat":48.841},"nom_arrondissement_communes":"Paris","code_insee_commune":"75056"},{"stationcode":"20042","name":"Pyrénées - Emmery","is_installed":"OUI","capacity":40,"numdocksavailable":36,"numbikesavailable":4,"mechanical":0,"ebike":4,"is_renting":"OUI","is_returning":"OUI","duedate":"2024-11-10T16:14:54+01:00","coordonnees_geo":{"lon":2.392,"lat":48.872},"nom_arrondissement_communes":"Paris","code_insee_commune":"75056"},{"stationcode":"11023","name":"Saint-Maur - Roquette","is_installed":"OUI","capacity":46,"numdocksavailable":37,"numbikesavailable":8,"mechanical":8,"ebike":0,"is_renting":"OUI","is_returning":"OUI","duedate":"2024-11-10T16:12:15+01:00","coordonnees_geo":{"lon":2.3836,"lat":48.8587},"nom_arrondissement_communes":"Paris","code_insee_commune":"75056"},{"stationcode":"17030","name":"Pereire - Rennequin","is_installed":"OUI","capacity":23,"numdocksavailable":18,"numbikesavailable":5,"mechanical":4,"ebike":1,"is_renting":"OUI","is_returning":"OUI","duedate":"2024-11-10T16:14:55+01:00","coordonnees_geo":{"lon":2.2952,"lat":48.8836},"nom_arrondissement_communes":"Paris","code_insee_commune":"75056"},{"stationcode":"45003","name":"11 Novembre 1918 - 8 Mai 1945","is_installed":"OUI","capacity":36,"numdocksavailable":23,"numbikesavailable":13,"mechanical":5,"ebike":8,"is_renting":"OUI","is_returning":"OUI","duedate":"2024-11-10T16:06:42+01:00","coordonnees_geo":{"lon":2.5382,"lat":48.8089},"nom_arrondissement_communes":"Champigny-sur-Marne","code_insee_commune":"94017"},{"stationcode":"8010","name":"Liège - Moscou","is_installed":"OUI","capacity":17,"numdocksavailable":13,"numbikesavailable":4,"mechanical":1,"ebike":3,"is_renting":"OUI","is_returning":"OUI","duedate":"2024-11-10T16:14:57+01:00","coordonnees_geo":{"lon":2.3265,"lat":48.8795},"nom_arrondissement_communes":"Paris","code_insee_commune":"75056"},{"stationcode":"12111","name":"Claude Decaen - Cannebière","is_installed":"OUI","capacity":27,"numdocksavailable":22,"numbikesavailable":5,"mechanical":1,"ebike":4,"is_renting":"OUI","is_returning":"OUI","duedate":"2024-11-10T16:14:59+01:00","coordonnees_geo":{"lon":2.3973,"lat":48.8376},"nom_arrondissement_communes":"Paris","code_insee_commune":"75056"},{"stationcode":"31022","name":"Mairie de Montreuil","is_installed":"OUI","capacity":52,"numdocksavailable":40,"numbikesavailable":11,"mechanical":9,"ebike":2,"is_renting":"OUI","is_returning":"OUI","duedate":"2024-11-10T16:13:53+01:00","coordonnees_geo":{"lon":2.4406,"lat":48.8613},"nom_arrondissement_communes":"Montreuil","code_insee_commune":"93048"},{"stationcode":"8034","name":"Berri - Haussmann","is_installed":"OUI","capacity":35,"numdocksavailable":32,"numbikesavailable":2,"mechanical":1,"ebike":1,"is_renting":"OUI","is_returning":"OUI","duedate":"2024-11-10T16:14:01+01:00","coordonnees_geo":{"lon":2.3083,"lat":48.8747},"nom_arrondissement_communes":"Paris","code_insee_commune":"75056"},{"stationcode":"46002","name":"Rouget de Lisle","is_installed":"OUI","capacity":35,"numdocksavailable":5,"numbikesavailable":30,"mechanical":14,"ebike":16,"is_renting":"OUI","is_returning":"OUI","duedate":"2024-11-10T16:14:44+01:00","coordonnees_geo":{"lon":2.4071,"lat":48.7646},"nom_arrondissement_communes":"Choisy-le-Roi","code_insee_commune":"94022"},{"stationcode":"5032","name":"Panthéon - Valette","is_installed":"OUI","capacity":39,"numdocksavailable":8,"numbikesavailable":31,"mechanical":0,"ebike":31,"is_renting":"OUI","is_returning":"OUI","duedate":"2024-11-10T16:15:03+01:00","coordonnees_geo":{"lon":2.3465,"lat":48.847},"nom_arrondissement_communes":"Paris","code_insee_commune":"75056"},{"stationcode":"10016","name":"Récollets - Square Villemin","is_installed":"OUI","capacity":17,"numdocksavailable":17,"numbikesavailable":0,"mechanical":0,"ebike":0,"is_renting":"OUI","is_returning":"OUI","duedate":"2024-11-10T16:14:43+01:00","coordonnees_geo":{"lon":2.3598,"lat":48.875},"nom_arrondissement_communes":"Paris","code_insee_commune":"75056"},{"stationcode":"5020","name":"Institut du Monde Arabe - Saint-Germain","is_installed":"OUI","capacity":40,"numdocksavailable":7,"numbikesavailable":30,"mechanical":24,"ebike":6,"is_renting":"OUI","is_returning":"OUI","duedate":"2024-11-10T16:15:46+01:00","coordonnees_geo":{"lon":2.3558,"lat":48.8491},"nom_arrondissement_communes":"Paris","code_insee_commune":"75056"},{"stationcode":"31009","name":"Place Du Général De Gaulle","is_installed":"OUI","capacity":26,"numdocksavailable":25,"numbikesavailable":1,"mechanical":0,"ebike":1,"is_renting":"OUI","is_returning":"OUI","duedate":"2024-11-10T16:13:42+01:00","coordonnees_geo":{"lon":2.433,"lat":48.8688},"nom_arrondissement_communes":"Montreuil","code_insee_commune":"93048"},{"stationcode":"18107","name":"Chartres - La Charbonnière","is_installed":"OUI","capacity":34,"numdocksavailable":31,"numbikesavailable":3,"mechanical":0,"ebike":3,"is_renting":"OUI","is_returning":"OUI","duedate":"2024-11-10T16:12:09+01:00","coordonnees_geo":{"lon":2.3535,"lat":48.8848},"nom_arrondissement_communes":"Paris","code_insee_commune":"75056"},{"stationcode":"5018","name":"Mutualité","is_installed":"OUI","capacity":37,"numdocksavailable":21,"numbikesavailable":13,"mechanical":10,"ebike":3,"is_renting":"OUI","is_returning":"OUI","duedate":"2024-11-10T16:15:28+01:00","coordonnees_geo":{"lon":2.3503,"lat":48.8482},"nom_arrondissement_communes":"Paris","code_insee_commune":"75056"},{"stationcode":"15067","name":"Desaix - Edgar Faure","is_installed":"OUI","capacity":12,"numdocksavailable":4,"numbikesavailable":7,"mechanical":6,"ebike":1,"is_renting":"OUI","is_returning":"OUI","duedate":"2024-11-10T16:12:20+01:00","coordonnees_geo":{"lon":2.2931,"lat":48.8528},"nom_arrondissement_communes":"Paris","code_insee_commune":"75056"},{"stationcode":"33017","name":"Anatole France - President Roosevelt","is_installed":"OUI","capacity":29,"numdocksavailable":9,"numbikesavailable":18,"mechanical":11,"ebike":7,"is_renting":"OUI","is_returning":"OUI","duedate":"2024-11-10T16:15:52+01:00","coordonnees_geo":{"lon":2.3814,"lat":48.9155},"nom_arrondissement_communes":"Aubervilliers","code_insee_commune":"93001"},{"stationcode":"6006","name":"Notre-Dame-des-Champs - Stanislas","is_installed":"OUI","capacity":19,"numdocksavailable":9,"numbikesavailable":9,"mechanical":2,"ebike":7,"is_renting":"OUI","is_returning":"OUI","duedate":"2024-11-10T16:15:13+01:00","coordonnees_geo":{"lon":2.3293,"lat":48.8448},"nom_arrondissement_communes":"Paris","code_insee_commune":"75056"},{"stationcode":"20112","name":"Jourdain - Place des Grandes Rigoles","is_installed":"OUI","capacity":22,"numdocksavailable":18,"numbikesavailable":4,"mechanical":0,"ebike":4,"is_renting":"OUI","is_returning":"OUI","duedate":"2024-11-10T16:08:11+01:00","coordonnees_geo":{"lon":2.3896,"lat":48.874},"nom_arrondissement_communes":"Paris","code_insee_commune":"75056"},{"stationcode":"11027","name":"Saint-Ambroise - Parmentier","is_installed":"OUI","capacity":38,"numdocksavailable":30,"numbikesavailable":8,"mechanical":6,"ebike":2,"is_renting":"OUI","is_returning":"OUI","duedate":"2024-11-10T16:11:33+01:00","coordonnees_geo":{"lon":2.3772,"lat":48.8621},"nom_arrondissement_communes":"Paris","code_insee_commune":"75056"},{"stationcode":"18011","name":"Pajol - Place Herbert","is_installed":"OUI","capacity":39,"numdocksavailable":36,"numbikesavailable":3,"mechanical":0,"ebike":3,"is_renting":"OUI","is_returning":"OUI","duedate":"2024-11-10T16:11:11+01:00","coordonnees_geo":{"lon":2.3636,"lat":48.8928},"nom_arrondissement_communes":"Paris","code_insee_commune":"75056"},{"stationcode":"12128","name":"Pyramide - Ecole du Breuil","is_installed":"OUI","capacity":34,"numdocksavailable":3,"numbikesavailable":31,"mechanical":24,"ebike":7,"is_renting":"OUI","is_returning":"OUI","duedate":"2024-11-10T16:15:36+01:00","coordonnees_geo":{"lon":2.4587,"lat":48.8224},"nom_arrondissement_communes":"Paris","code_insee_commune":"75056"},{"stationcode":"42706","name":"Roger Salengro - Fontainebleau","is_installed":"OUI","capacity":25,"numdocksavailable":23,"numbikesavailable":2,"mechanical":0,"ebike":2,"is_renting":"OUI","is_returning":"OUI","duedate":"2024-11-10T16:09:48+01:00","coordonnees_geo":{"lon":2.3612,"lat":48.8145},"nom_arrondissement_communes":"Le Kremlin-Bicêtre","code_insee_commune":"94043"},{"stationcode":"41302","name":"Charles de Gaulle - Beauté","is_installed":"OUI","capacity":49,"numdocksavailable":42,"numbikesavailable":6,"mechanical":1,"ebike":5,"is_renting":"OUI","is_returning":"OUI","duedate":"2024-11-10T16:12:19+01:00","coordonnees_geo":{"lon":2.4796,"lat":48.8365},"nom_arrondissement_communes":"Nogent-sur-Marne","code_insee_commune":"94052"},{"stationcode":"11113","name":"Richard Lenoir - Republique","is_installed":"OUI","capacity":58,"numdocksavailable":48,"numbikesavailable":9,"mechanical":7,"ebike":2,"is_renting":"OUI","is_returning":"OUI","duedate":"2024-11-10T16:15:42+01:00","coordonnees_geo":{"lon":2.3693,"lat":48.8667},"nom_arrondissement_communes":"Paris","code_insee_commune":"75056"},{"stationcode":"14020","name":"Cimetière de Montrouge","is_installed":"OUI","capacity":58,"numdocksavailable":39,"numbikesavailable":17,"mechanical":13,"ebike":4,"is_renting":"OUI","is_returning":"OUI","duedate":"2024-11-10T16:14:30+01:00","coordonnees_geo":{"lon":2.3216,"lat":48.8215},"nom_arrondissement_communes":"Paris","code_insee_commune":"75056"},{"stationcode":"19101","name":"Square Simon Bolivar","is_installed":"OUI","capacity":24,"numdocksavailable":23,"numbikesavailable":1,"mechanical":1,"ebike":0,"is_renting":"OUI","is_returning":"OUI","duedate":"2024-11-10T16:13:34+01:00","coordonnees_geo":{"lon":2.3826,"lat":48.8751},"nom_arrondissement_communes":"Paris","code_insee_commune":"75056"},{"stationcode":"15042","name":"Henry Farman","is_installed":"OUI","capacity":16,"numdocksavailable":0,"numbikesavailable":16,"mechanical":13,"ebike":3,"is_renting":"OUI","is_returning":"OUI","duedate":"2024-11-10T16:11:23+01:00","coordonnees_geo":{"lon":2.2714,"lat":48.8337},"nom_arrondissement_communes":"Paris","code_insee_commune":"75056"},{"stationcode":"19103","name":"Manin - Carrières d'Amérique","is_installed":"OUI","capacity":20,"numdocksavailable":17,"numbikesavailable":0,"mechanical":0,"ebike":0,"is_renting":"OUI","is_returning":"OUI","duedate":"2024-11-10T16:08:48+01:00","coordonnees_geo":{"lon":2.392,"lat":48.8847},"nom_arrondissement_communes":"Paris","code_insee_commune":"75056"},{"stationcode":"33102","name":"Gabriel Péri - Francisco Ferrer","is_installed":"OUI","capacity":18,"numdocksavailable":17,"numbikesavailable":0,"mechanical":0,"ebike":0,"is_renting":"OUI","is_returning":"OUI","duedate":"2024-11-10T16:07:34+01:00","coordonnees_geo":{"lon":2.4073,"lat":48.8863},"nom_arrondissement_communes":"Le Pré-Saint-Gervais","code_insee_commune":"93061"},{"stationcode":"12114","name":"Victor Hugo - Jeanne Jugan","is_installed":"OUI","capacity":28,"numdocksavailable":28,"numbikesavailable":0,"mechanical":0,"ebike":0,"is_renting":"OUI","is_returning":"OUI","duedate":"2024-11-10T16:09:32+01:00","coordonnees_geo":{"lon":2.4151,"lat":48.8439},"nom_arrondissement_communes":"Paris","code_insee_commune":"75056"},{"stationcode":"21212","name":"Marne - Germain Dardan","is_installed":"OUI","capacity":22,"numdocksavailable":18,"numbikesavailable":4,"mechanical":3,"ebike":1,"is_renting":"OUI","is_returning":"OUI","duedate":"2024-11-10T16:11:03+01:00","coordonnees_geo":{"lon":2.3035,"lat":48.8122},"nom_arrondissement_communes":"Montrouge","code_insee_commune":"92049"},{"stationcode":"46003","name":"Conservatoire de Musique","is_installed":"OUI","capacity":25,"numdocksavailable":1,"numbikesavailable":23,"mechanical":7,"ebike":16,"is_renting":"OUI","is_returning":"OUI","duedate":"2024-11-10T16:15:14+01:00","coordonnees_geo":{"lon":2.4034,"lat":48.7709},"nom_arrondissement_communes":"Choisy-le-Roi","code_insee_commune":"94022"},{"stationcode":"44006","name":"Concorde - Stalingrad","is_installed":"OUI","capacity":35,"numdocksavailable":24,"numbikesavailable":8,"mechanical":5,"ebike":3,"is_renting":"OUI","is_returning":"OUI","duedate":"2024-11-10T16:11:58+01:00","coordonnees_geo":{"lon":2.3821,"lat":48.7986},"nom_arrondissement_communes":"Vitry-sur-Seine","code_insee_commune":"94081"},{"stationcode":"41209","name":"Cimetière de Fontenay-sous-Bois","is_installed":"OUI","capacity":15,"numdocksavailable":11,"numbikesavailable":4,"mechanical":0,"ebike":4,"is_renting":"OUI","is_returning":"OUI","duedate":"2024-11-10T16:08:34+01:00","coordonnees_geo":{"lon":2.4788,"lat":48.8471},"nom_arrondissement_communes":"Fontenay-sous-Bois","code_insee_commune":"94033"},{"stationcode":"19120","name":"Carducci - Place Hannah Arendt","is_installed":"OUI","capacity":27,"numdocksavailable":26,"numbikesavailable":1,"mechanical":0,"ebike":1,"is_renting":"OUI","is_returning":"OUI","duedate":"2024-11-10T16:10:39+01:00","coordonnees_geo":{"lon":2.3861,"lat":48.8774},"nom_arrondissement_communes":"Paris","code_insee_commune":"75056"},{"stationcode":"21312","name":"Lucie Aubrac - Fort","is_installed":"OUI","capacity":30,"numdocksavailable":29,"numbikesavailable":1,"mechanical":0,"ebike":1,"is_renting":"OUI","is_returning":"OUI","duedate":"2024-11-10T16:06:52+01:00","coordonnees_geo":{"lon":2.2712,"lat":48.8181},"nom_arrondissement_communes":"Issy-les-Moulineaux","code_insee_commune":"92040"},{"stationcode":"18003","name":"Cimetière de Montmartre","is_installed":"OUI","capacity":43,"numdocksavailable":38,"numbikesavailable":4,"mechanical":1,"ebike":3,"is_renting":"OUI","is_returning":"OUI","duedate":"2024-11-10T16:15:47+01:00","coordonnees_geo":{"lon":2.3329,"lat":48.8865},"nom_arrondissement_communes":"Paris","code_insee_commune":"75056"},{"stationcode":"14008","name":"Mouton Duvernet - Général Leclerc","is_installed":"OUI","capacity":28,"numdocksavailable":27,"numbikesavailable":1,"mechanical":1,"ebike":0,"is_renting":"OUI","is_returning":"OUI","duedate":"2024-11-10T16:15:36+01:00","coordonnees_geo":{"lon":2.3293,"lat":48.8316},"nom_arrondissement_communes":"Paris","code_insee_commune":"75056"},{"stationcode":"15104","name":"Hôpital Européen Georges Pompidou","is_installed":"OUI","capacity":64,"numdocksavailable":44,"numbikesavailable":19,"mechanical":15,"ebike":4,"is_renting":"OUI","is_returning":"OUI","duedate":"2024-11-10T16:14:29+01:00","coordonnees_geo":{"lon":2.2754,"lat":48.8377},"nom_arrondissement_communes":"Paris","code_insee_commune":"75056"},{"stationcode":"18028","name":"Championnet - Vauvenargues","is_installed":"OUI","capacity":33,"numdocksavailable":27,"numbikesavailable":5,"mechanical":3,"ebike":2,"is_renting":"OUI","is_returning":"OUI","duedate":"2024-11-10T16:12:32+01:00","coordonnees_geo":{"lon":2.332,"lat":48.894},"nom_arrondissement_communes":"Paris","code_insee_commune":"75056"},{"stationcode":"14003","name":"Schoelcher - Raspail","is_installed":"OUI","capacity":50,"numdocksavailable":38,"numbikesavailable":9,"mechanical":4,"ebike":5,"is_renting":"OUI","is_returning":"OUI","duedate":"2024-11-10T16:12:49+01:00","coordonnees_geo":{"lon":2.3313,"lat":48.8368},"nom_arrondissement_communes":"Paris","code_insee_commune":"75056"},{"stationcode":"8017","name":"Rocher - Laborde","is_installed":"OUI","capacity":65,"numdocksavailable":49,"numbikesavailable":15,"mechanical":9,"ebike":6,"is_renting":"OUI","is_returning":"OUI","duedate":"2024-11-10T16:14:11+01:00","coordonnees_geo":{"lon":2.3226,"lat":48.8759},"nom_arrondissement_communes":"Paris","code_insee_commune":"75056"},{"stationcode":"43008","name":"Fontenay - Libération","is_installed":"OUI","capacity":25,"numdocksavailable":23,"numbikesavailable":2,"mechanical":1,"ebike":1,"is_renting":"OUI","is_returning":"OUI","duedate":"2024-11-10T16:15:35+01:00","coordonnees_geo":{"lon":2.4451,"lat":48.8478},"nom_arrondissement_communes":"Vincennes","code_insee_commune":"94080"},{"stationcode":"15054","name":"Lecourbe - Jean Maridor","is_installed":"OUI","capacity":19,"numdocksavailable":12,"numbikesavailable":7,"mechanical":4,"ebike":3,"is_renting":"OUI","is_returning":"OUI","duedate":"2024-11-10T16:12:00+01:00","coordonnees_geo":{"lon":2.2877,"lat":48.838},"nom_arrondissement_communes":"Paris","code_insee_commune":"75056"},{"stationcode":"14138","name":"Porte de Vanves","is_installed":"OUI","capacity":32,"numdocksavailable":27,"numbikesavailable":4,"mechanical":0,"ebike":4,"is_renting":"OUI","is_returning":"OUI","duedate":"2024-11-10T16:14:49+01:00","coordonnees_geo":{"lon":2.3057,"lat":48.828},"nom_arrondissement_communes":"Paris","code_insee_commune":"75056"},{"stationcode":"5124","name":"Erasme - Ulm","is_installed":"OUI","capacity":24,"numdocksavailable":21,"numbikesavailable":3,"mechanical":0,"ebike":3,"is_renting":"OUI","is_returning":"OUI","duedate":"2024-11-10T16:12:50+01:00","coordonnees_geo":{"lon":2.3446,"lat":48.8426},"nom_arrondissement_communes":"Paris","code_insee_commune":"75056"},{"stationcode":"13001","name":"Port-Royal - Hôpital du Val-de-Grâce","is_installed":"OUI","capacity":18,"numdocksavailable":16,"numbikesavailable":2,"mechanical":1,"ebike":1,"is_renting":"OUI","is_returning":"OUI","duedate":"2024-11-10T16:11:32+01:00","coordonnees_geo":{"lon":2.3448,"lat":48.8377},"nom_arrondissement_communes":"Paris","code_insee_commune":"75056"},{"stationcode":"18046","name":"Etienne Jodelle - Saint Ouen","is_installed":"OUI","capacity":33,"numdocksavailable":30,"numbikesavailable":3,"mechanical":0,"ebike":3,"is_renting":"OUI","is_returning":"OUI","duedate":"2024-11-10T16:12:23+01:00","coordonnees_geo":{"lon":2.3261,"lat":48.8879},"nom_arrondissement_communes":"Paris","code_insee_commune":"75056"},{"stationcode":"15106","name":"Grenelle - Violet","is_installed":"OUI","capacity":35,"numdocksavailable":9,"numbikesavailable":24,"mechanical":21,"ebike":3,"is_renting":"OUI","is_returning":"OUI","duedate":"2024-11-10T16:15:05+01:00","coordonnees_geo":{"lon":2.2946,"lat":48.8499},"nom_arrondissement_communes":"Paris","code_insee_commune":"75056"},{"stationcode":"8054","name":"Bertie Albrecht - Hoche","is_installed":"OUI","capacity":32,"numdocksavailable":29,"numbikesavailable":3,"mechanical":3,"ebike":0,"is_renting":"OUI","is_returning":"OUI","duedate":"2024-11-10T16:07:27+01:00","coordonnees_geo":{"lon":2.3013,"lat":48.8761},"nom_arrondissement_communes":"Paris","code_insee_commune":"75056"},{"stationcode":"14106","name":"Marc Sangnier - Porte de Vanves","is_installed":"OUI","capacity":21,"numdocksavailable":11,"numbikesavailable":10,"mechanical":7,"ebike":3,"is_renting":"OUI","is_returning":"OUI","duedate":"2024-11-10T16:14:39+01:00","coordonnees_geo":{"lon":2.3107,"lat":48.8252},"nom_arrondissement_communes":"Paris","code_insee_commune":"75056"},{"stationcode":"21209","name":"Molière - République","is_installed":"OUI","capacity":30,"numdocksavailable":29,"numbikesavailable":1,"mechanical":0,"ebike":1,"is_renting":"OUI","is_returning":"OUI","duedate":"2024-11-10T16:08:12+01:00","coordonnees_geo":{"lon":2.3146,"lat":48.8111},"nom_arrondissement_communes":"Montrouge","code_insee_commune":"92049"},{"stationcode":"22406","name":"Guy Môquet - Etienne Dolet","is_installed":"OUI","capacity":23,"numdocksavailable":21,"numbikesavailable":0,"mechanical":0,"ebike":0,"is_renting":"OUI","is_returning":"OUI","duedate":"2024-11-10T16:15:47+01:00","coordonnees_geo":{"lon":2.2981,"lat":48.8153},"nom_arrondissement_communes":"Malakoff","code_insee_commune":"92046"},{"stationcode":"10042","name":"Enghien - Faubourg Poissonnière","is_installed":"OUI","capacity":33,"numdocksavailable":24,"numbikesavailable":8,"mechanical":4,"ebike":4,"is_renting":"OUI","is_returning":"OUI","duedate":"2024-11-10T16:13:51+01:00","coordonnees_geo":{"lon":2.3484,"lat":48.8724},"nom_arrondissement_communes":"Paris","code_insee_commune":"75056"},{"stationcode":"31102","name":"Boissière - Etienne Dolet","is_installed":"OUI","capacity":21,"numdocksavailable":20,"numbikesavailable":0,"mechanical":0,"ebike":0,"is_renting":"OUI","is_returning":"OUI","duedate":"2024-11-10T16:08:15+01:00","coordonnees_geo":{"lon":2.4677,"lat":48.8761},"nom_arrondissement_communes":"Montreuil","code_insee_commune":"93048"},{"stationcode":"17203","name":"Place de la Porte de Champeret","is_installed":"OUI","capacity":28,"numdocksavailable":9,"numbikesavailable":18,"mechanical":17,"ebike":1,"is_renting":"OUI","is_returning":"OUI","duedate":"2024-11-10T16:14:56+01:00","coordonnees_geo":{"lon":2.2917,"lat":48.8861},"nom_arrondissement_communes":"Paris","code_insee_commune":"75056"},{"stationcode":"2111","name":"Chabanais - Petits Champs","is_installed":"OUI","capacity":30,"numdocksavailable":3,"numbikesavailable":25,"mechanical":18,"ebike":7,"is_renting":"OUI","is_returning":"OUI","duedate":"2024-11-10T16:15:13+01:00","coordonnees_geo":{"lon":2.3367,"lat":48.867},"nom_arrondissement_communes":"Paris","code_insee_commune":"75056"},{"stationcode":"8045","name":"Place de la Reine Astrid","is_installed":"OUI","capacity":58,"numdocksavailable":3,"numbikesavailable":53,"mechanical":33,"ebike":20,"is_renting":"OUI","is_returning":"OUI","duedate":"2024-11-10T16:15:36+01:00","coordonnees_geo":{"lon":2.3025,"lat":48.8649},"nom_arrondissement_communes":"Paris","code_insee_commune":"75056"},{"stationcode":"18022","name":"Marcadet - Barbès","is_installed":"OUI","capacity":37,"numdocksavailable":36,"numbikesavailable":1,"mechanical":0,"ebike":1,"is_renting":"OUI","is_returning":"OUI","duedate":"2024-11-10T16:12:04+01:00","coordonnees_geo":{"lon":2.3491,"lat":48.8905},"nom_arrondissement_communes":"Paris","code_insee_commune":"75056"},{"stationcode":"14124","name":"David Weill - Parc Montsouris","is_installed":"OUI","capacity":22,"numdocksavailable":16,"numbikesavailable":6,"mechanical":0,"ebike":6,"is_renting":"OUI","is_returning":"OUI","duedate":"2024-11-10T16:15:28+01:00","coordonnees_geo":{"lon":2.3337,"lat":48.8211},"nom_arrondissement_communes":"Paris","code_insee_commune":"75056"},{"stationcode":"15109","name":"Cevennes - Bergers","is_installed":"OUI","capacity":29,"numdocksavailable":15,"numbikesavailable":14,"mechanical":10,"ebike":4,"is_renting":"OUI","is_returning":"OUI","duedate":"2024-11-10T16:15:52+01:00","coordonnees_geo":{"lon":2.281,"lat":48.8424},"nom_arrondissement_communes":"Paris","code_insee_commune":"75056"},{"stationcode":"15110","name":"Place Robert Guillemard","is_installed":"OUI","capacity":24,"numdocksavailable":13,"numbikesavailable":11,"mechanical":11,"ebike":0,"is_renting":"OUI","is_returning":"OUI","duedate":"2024-11-10T16:15:50+01:00","coordonnees_geo":{"lon":2.2811,"lat":48.8362},"nom_arrondissement_communes":"Paris","code_insee_commune":"75056"},{"stationcode":"14012","name":"Sibelle - Alésia","is_installed":"OUI","capacity":37,"numdocksavailable":33,"numbikesavailable":4,"mechanical":1,"ebike":3,"is_renting":"OUI","is_returning":"OUI","duedate":"2024-11-10T16:13:29+01:00","coordonnees_geo":{"lon":2.3385,"lat":48.8267},"nom_arrondissement_communes":"Paris","code_insee_commune":"75056"},{"stationcode":"44013","name":"Edouard Tremblay - Julian Grimaux","is_installed":"OUI","capacity":30,"numdocksavailable":27,"numbikesavailable":3,"mechanical":3,"ebike":0,"is_renting":"OUI","is_returning":"OUI","duedate":"2024-11-10T16:15:41+01:00","coordonnees_geo":{"lon":2.3724,"lat":48.7814},"nom_arrondissement_communes":"Vitry-sur-Seine","code_insee_commune":"94081"},{"stationcode":"21005","name":"Hôtel de Ville de Boulogne Billancourt","is_installed":"OUI","capacity":26,"numdocksavailable":3,"numbikesavailable":23,"mechanical":18,"ebike":5,"is_renting":"OUI","is_returning":"OUI","duedate":"2024-11-10T16:12:26+01:00","coordonnees_geo":{"lon":2.2417,"lat":48.835},"nom_arrondissement_communes":"Boulogne-Billancourt","code_insee_commune":"92012"},{"stationcode":"21015","name":"Nationale - Place Jules Guesde","is_installed":"OUI","capacity":23,"numdocksavailable":6,"numbikesavailable":17,"mechanical":11,"ebike":6,"is_renting":"OUI","is_returning":"OUI","duedate":"2024-11-10T16:10:38+01:00","coordonnees_geo":{"lon":2.2416,"lat":48.8275},"nom_arrondissement_communes":"Boulogne-Billancourt","code_insee_commune":"92012"},{"stationcode":"35010","name":"Hoche - Jean Lolive","is_installed":"OUI","capacity":24,"numdocksavailable":18,"numbikesavailable":6,"mechanical":1,"ebike":5,"is_renting":"OUI","is_returning":"OUI","duedate":"2024-11-10T16:14:43+01:00","coordonnees_geo":{"lon":2.4028,"lat":48.8911},"nom_arrondissement_communes":"Pantin","code_insee_commune":"93055"},{"stationcode":"15034","name":"Lakanal - Commerce","is_installed":"OUI","capacity":53,"numdocksavailable":3,"numbikesavailable":45,"mechanical":41,"ebike":4,"is_renting":"OUI","is_returning":"OUI","duedate":"2024-11-10T16:15:29+01:00","coordonnees_geo":{"lon":2.2941,"lat":48.8444},"nom_arrondissement_communes":"Paris","code_insee_commune":"75056"},{"stationcode":"5004","name":"Saint-Jacques - Val de Grâce","is_installed":"OUI","capacity":19,"numdocksavailable":12,"numbikesavailable":5,"mechanical":4,"ebike":1,"is_renting":"OUI","is_returning":"OUI","duedate":"2024-11-10T16:14:22+01:00","coordonnees_geo":{"lon":2.3414,"lat":48.8418},"nom_arrondissement_communes":"Paris","code_insee_commune":"75056"},{"stationcode":"5028","name":"Censier - Jardin des Plantes","is_installed":"OUI","capacity":28,"numdocksavailable":15,"numbikesavailable":13,"mechanical":9,"ebike":4,"is_renting":"OUI","is_returning":"OUI","duedate":"2024-11-10T16:14:19+01:00","coordonnees_geo":{"lon":2.3555,"lat":48.8411},"nom_arrondissement_communes":"Paris","code_insee_commune":"75056"},{"stationcode":"42014","name":"Place Marcel Cachin","is_installed":"OUI","capacity":32,"numdocksavailable":2,"numbikesavailable":30,"mechanical":27,"ebike":3,"is_renting":"OUI","is_returning":"OUI","duedate":"2024-11-10T16:11:01+01:00","coordonnees_geo":{"lon":2.3909,"lat":48.8141},"nom_arrondissement_communes":"Ivry-sur-Seine","code_insee_commune":"94041"},{"stationcode":"48010","name":"Karl Marx","is_installed":"OUI","capacity":16,"numdocksavailable":12,"numbikesavailable":4,"mechanical":3,"ebike":1,"is_renting":"OUI","is_returning":"OUI","duedate":"2024-11-10T16:14:03+01:00","coordonnees_geo":{"lon":2.3647,"lat":48.7845},"nom_arrondissement_communes":"Villejuif","code_insee_commune":"94076"},{"stationcode":"4016","name":"Lobau - Hôtel de Ville","is_installed":"OUI","capacity":60,"numdocksavailable":3,"numbikesavailable":56,"mechanical":37,"ebike":19,"is_renting":"OUI","is_returning":"OUI","duedate":"2024-11-10T16:14:53+01:00","coordonnees_geo":{"lon":2.3533,"lat":48.8562},"nom_arrondissement_communes":"Paris","code_insee_commune":"75056"},{"stationcode":"41202","name":"Gare Rer de Fontenay sous Bois","is_installed":"OUI","capacity":61,"numdocksavailable":52,"numbikesavailable":8,"mechanical":3,"ebike":5,"is_renting":"OUI","is_returning":"OUI","duedate":"2024-11-10T16:11:20+01:00","coordonnees_geo":{"lon":2.463,"lat":48.8436},"nom_arrondissement_communes":"Fontenay-sous-Bois","code_insee_commune":"94033"},{"stationcode":"15133","name":"Saint Lambert - Blomet","is_installed":"OUI","capacity":27,"numdocksavailable":21,"numbikesavailable":3,"mechanical":2,"ebike":1,"is_renting":"OUI","is_returning":"OUI","duedate":"2024-11-10T16:14:41+01:00","coordonnees_geo":{"lon":2.2931,"lat":48.8366},"nom_arrondissement_communes":"Paris","code_insee_commune":"75056"},{"stationcode":"20115","name":"Louis Lumière - Porte de Bagnolet","is_installed":"OUI","capacity":20,"numdocksavailable":17,"numbikesavailable":2,"mechanical":1,"ebike":1,"is_renting":"OUI","is_returning":"OUI","duedate":"2024-11-10T16:13:04+01:00","coordonnees_geo":{"lon":2.4105,"lat":48.8643},"nom_arrondissement_communes":"Paris","code_insee_commune":"75056"},{"stationcode":"21006","name":"Marcelin Berthelot","is_installed":"OUI","capacity":27,"numdocksavailable":7,"numbikesavailable":20,"mechanical":14,"ebike":6,"is_renting":"OUI","is_returning":"OUI","duedate":"2024-11-10T16:14:41+01:00","coordonnees_geo":{"lon":2.2332,"lat":48.8415},"nom_arrondissement_communes":"Boulogne-Billancourt","code_insee_commune":"92012"},{"stationcode":"31003","name":"Paris - Emile Zola","is_installed":"OUI","capacity":30,"numdocksavailable":25,"numbikesavailable":5,"mechanical":2,"ebike":3,"is_renting":"OUI","is_returning":"OUI","duedate":"2024-11-10T16:07:58+01:00","coordonnees_geo":{"lon":2.4187,"lat":48.8549},"nom_arrondissement_communes":"Montreuil","code_insee_commune":"93048"},{"stationcode":"20131","name":"Repos - Cimetière du Père Lachaise","is_installed":"OUI","capacity":33,"numdocksavailable":13,"numbikesavailable":17,"mechanical":12,"ebike":5,"is_renting":"OUI","is_returning":"OUI","duedate":"2024-11-10T16:14:55+01:00","coordonnees_geo":{"lon":2.3896,"lat":48.8594},"nom_arrondissement_communes":"Paris","code_insee_commune":"75056"},{"stationcode":"22402","name":"Jean Jaurès - Salvador Allende","is_installed":"OUI","capacity":43,"numdocksavailable":39,"numbikesavailable":2,"mechanical":1,"ebike":1,"is_renting":"OUI","is_returning":"OUI","duedate":"2024-11-10T16:13:34+01:00","coordonnees_geo":{"lon":2.3027,"lat":48.8215},"nom_arrondissement_communes":"Malakoff","code_insee_commune":"92046"},{"stationcode":"6025","name":"Assas - Rennes","is_installed":"OUI","capacity":32,"numdocksavailable":29,"numbikesavailable":2,"mechanical":2,"ebike":0,"is_renting":"OUI","is_returning":"OUI","duedate":"2024-11-10T16:15:16+01:00","coordonnees_geo":{"lon":2.3285,"lat":48.8492},"nom_arrondissement_communes":"Paris","code_insee_commune":"75056"},{"stationcode":"9116","name":"Victoire - Chaussée d'Antin","is_installed":"OUI","capacity":24,"numdocksavailable":15,"numbikesavailable":9,"mechanical":6,"ebike":3,"is_renting":"OUI","is_returning":"OUI","duedate":"2024-11-10T16:13:39+01:00","coordonnees_geo":{"lon":2.3317,"lat":48.8751},"nom_arrondissement_communes":"Paris","code_insee_commune":"75056"},{"stationcode":"31008","name":"François Debergue - Croix de Chavaux","is_installed":"OUI","capacity":57,"numdocksavailable":53,"numbikesavailable":4,"mechanical":1,"ebike":3,"is_renting":"OUI","is_returning":"OUI","duedate":"2024-11-10T16:15:19+01:00","coordonnees_geo":{"lon":2.4376,"lat":48.8574},"nom_arrondissement_communes":"Montreuil","code_insee_commune":"93048"},{"stationcode":"21008","name":"Victor Hugo - Galliéni","is_installed":"OUI","capacity":34,"numdocksavailable":28,"numbikesavailable":6,"mechanical":4,"ebike":2,"is_renting":"OUI","is_returning":"OUI","duedate":"2024-11-10T16:14:34+01:00","coordonnees_geo":{"lon":2.2461,"lat":48.838},"nom_arrondissement_communes":"Boulogne-Billancourt","code_insee_commune":"92012"},{"stationcode":"44003","name":"Gabriel Péri - Danielle Casanova","is_installed":"OUI","capacity":20,"numdocksavailable":8,"numbikesavailable":12,"mechanical":6,"ebike":6,"is_renting":"OUI","is_returning":"OUI","duedate":"2024-11-10T16:11:42+01:00","coordonnees_geo":{"lon":2.4026,"lat":48.7901},"nom_arrondissement_communes":"Vitry-sur-Seine","code_insee_commune":"94081"},{"stationcode":"11039","name":"Richard Lenoir - Jean-Pierre Timbaud","is_installed":"OUI","capacity":36,"numdocksavailable":27,"numbikesavailable":8,"mechanical":8,"ebike":0,"is_renting":"OUI","is_returning":"OUI","duedate":"2024-11-10T16:15:43+01:00","coordonnees_geo":{"lon":2.3693,"lat":48.8658},"nom_arrondissement_communes":"Paris","code_insee_commune":"75056"},{"stationcode":"22203","name":"Tertres - Fontaine","is_installed":"OUI","capacity":28,"numdocksavailable":18,"numbikesavailable":9,"mechanical":1,"ebike":8,"is_renting":"OUI","is_returning":"OUI","duedate":"2024-11-10T16:14:09+01:00","coordonnees_geo":{"lon":2.3062,"lat":48.7876},"nom_arrondissement_communes":"Bagneux","code_insee_commune":"92007"},{"stationcode":"11026","name":"Chemin Vert - Saint-Maur","is_installed":"OUI","capacity":45,"numdocksavailable":37,"numbikesavailable":8,"mechanical":5,"ebike":3,"is_renting":"OUI","is_returning":"OUI","duedate":"2024-11-10T16:15:50+01:00","coordonnees_geo":{"lon":2.3813,"lat":48.8611},"nom_arrondissement_communes":"Paris","code_insee_commune":"75056"},{"stationcode":"42021","name":"Raspail - Manufacture des Oeillets","is_installed":"OUI","capacity":32,"numdocksavailable":16,"numbikesavailable":14,"mechanical":11,"ebike":3,"is_renting":"OUI","is_returning":"OUI","duedate":"2024-11-10T16:15:48+01:00","coordonnees_geo":{"lon":2.3903,"lat":48.8094},"nom_arrondissement_communes":"Ivry-sur-Seine","code_insee_commune":"94041"},{"stationcode":"41601","name":"Général De Gaulle - Alouette","is_installed":"OUI","capacity":26,"numdocksavailable":21,"numbikesavailable":5,"mechanical":3,"ebike":2,"is_renting":"OUI","is_returning":"OUI","duedate":"2024-11-10T16:13:11+01:00","coordonnees_geo":{"lon":2.4176,"lat":48.8391},"nom_arrondissement_communes":"Saint-Mandé","code_insee_commune":"94067"},{"stationcode":"1119","name":"Cossonnerie - Sébastopol","is_installed":"OUI","capacity":24,"numdocksavailable":3,"numbikesavailable":21,"mechanical":12,"ebike":9,"is_renting":"OUI","is_returning":"OUI","duedate":"2024-11-10T16:15:42+01:00","coordonnees_geo":{"lon":2.3494,"lat":48.8613},"nom_arrondissement_communes":"Paris","code_insee_commune":"75056"},{"stationcode":"23006","name":"Jules Guesde - Alsace","is_installed":"OUI","capacity":25,"numdocksavailable":18,"numbikesavailable":7,"mechanical":4,"ebike":3,"is_renting":"OUI","is_returning":"OUI","duedate":"2024-11-10T16:11:08+01:00","coordonnees_geo":{"lon":2.2951,"lat":48.8906},"nom_arrondissement_communes":"Levallois-Perret","code_insee_commune":"92044"},{"stationcode":"35020","name":"Marcelle - Thalie","is_installed":"OUI","capacity":20,"numdocksavailable":18,"numbikesavailable":1,"mechanical":0,"ebike":1,"is_renting":"OUI","is_returning":"OUI","duedate":"2024-11-10T16:07:05+01:00","coordonnees_geo":{"lon":2.4138,"lat":48.8835},"nom_arrondissement_communes":"Pantin","code_insee_commune":"93055"},{"stationcode":"15021","name":"Joseph Liouville - Croix Nivert","is_installed":"OUI","capacity":64,"numdocksavailable":41,"numbikesavailable":22,"mechanical":18,"ebike":4,"is_renting":"OUI","is_returning":"OUI","duedate":"2024-11-10T16:15:45+01:00","coordonnees_geo":{"lon":2.2975,"lat":48.8448},"nom_arrondissement_communes":"Paris","code_insee_commune":"75056"},{"stationcode":"1020","name":"Cambon - Rivoli","is_installed":"OUI","capacity":40,"numdocksavailable":3,"numbikesavailable":36,"mechanical":26,"ebike":10,"is_renting":"OUI","is_returning":"OUI","duedate":"2024-11-10T16:15:33+01:00","coordonnees_geo":{"lon":2.3252,"lat":48.8661},"nom_arrondissement_communes":"Paris","code_insee_commune":"75056"},{"stationcode":"18009","name":"Jean-François Lépine - Stephenson","is_installed":"OUI","capacity":22,"numdocksavailable":18,"numbikesavailable":3,"mechanical":1,"ebike":2,"is_renting":"OUI","is_returning":"OUI","duedate":"2024-11-10T16:15:49+01:00","coordonnees_geo":{"lon":2.3569,"lat":48.8861},"nom_arrondissement_communes":"Paris","code_insee_commune":"75056"},{"stationcode":"25003","name":"Henri Ste-Claire Déville - Paul Héroult","is_installed":"OUI","capacity":24,"numdocksavailable":13,"numbikesavailable":9,"mechanical":6,"ebike":3,"is_renting":"OUI","is_returning":"OUI","duedate":"2024-11-10T16:13:48+01:00","coordonnees_geo":{"lon":2.1724,"lat":48.8927},"nom_arrondissement_communes":"Rueil-Malmaison","code_insee_commune":"92063"},{"stationcode":"16108","name":"Sablons - Georges Mandel","is_installed":"OUI","capacity":38,"numdocksavailable":37,"numbikesavailable":1,"mechanical":1,"ebike":0,"is_renting":"OUI","is_returning":"OUI","duedate":"2024-11-10T16:15:44+01:00","coordonnees_geo":{"lon":2.2819,"lat":48.8639},"nom_arrondissement_communes":"Paris","code_insee_commune":"75056"},{"stationcode":"11030","name":"Oberkampf - République","is_installed":"OUI","capacity":24,"numdocksavailable":23,"numbikesavailable":1,"mechanical":0,"ebike":1,"is_renting":"OUI","is_returning":"OUI","duedate":"2024-11-10T16:12:02+01:00","coordonnees_geo":{"lon":2.3761,"lat":48.8653},"nom_arrondissement_communes":"Paris","code_insee_commune":"75056"},{"stationcode":"17125","name":"Marie-Georges Picquart - Pereire","is_installed":"OUI","capacity":32,"numdocksavailable":31,"numbikesavailable":1,"mechanical":1,"ebike":0,"is_renting":"OUI","is_returning":"OUI","duedate":"2024-11-10T16:12:31+01:00","coordonnees_geo":{"lon":2.3112,"lat":48.8886},"nom_arrondissement_communes":"Paris","code_insee_commune":"75056"},{"stationcode":"17013","name":"Legendre - Dulong","is_installed":"OUI","capacity":23,"numdocksavailable":18,"numbikesavailable":4,"mechanical":1,"ebike":3,"is_renting":"OUI","is_returning":"OUI","duedate":"2024-11-10T16:15:37+01:00","coordonnees_geo":{"lon":2.3164,"lat":48.8853},"nom_arrondissement_communes":"Paris","code_insee_commune":"75056"},{"stationcode":"43005","name":"Gare RER de Vincennes","is_installed":"OUI","capacity":51,"numdocksavailable":24,"numbikesavailable":25,"mechanical":19,"ebike":6,"is_renting":"OUI","is_returning":"OUI","duedate":"2024-11-10T16:15:36+01:00","coordonnees_geo":{"lon":2.4334,"lat":48.8476},"nom_arrondissement_communes":"Vincennes","code_insee_commune":"94080"},{"stationcode":"32604","name":"Square du Théâtre du Garde-Chasse","is_installed":"OUI","capacity":50,"numdocksavailable":48,"numbikesavailable":1,"mechanical":0,"ebike":1,"is_renting":"OUI","is_returning":"OUI","duedate":"2024-11-10T16:09:59+01:00","coordonnees_geo":{"lon":2.4201,"lat":48.8813},"nom_arrondissement_communes":"Les Lilas","code_insee_commune":"93045"},{"stationcode":"16136","name":"Théophile Gautier - François Millet","is_installed":"OUI","capacity":30,"numdocksavailable":8,"numbikesavailable":20,"mechanical":18,"ebike":2,"is_renting":"OUI","is_returning":"OUI","duedate":"2024-11-10T16:15:48+01:00","coordonnees_geo":{"lon":2.273,"lat":48.8503},"nom_arrondissement_communes":"Paris","code_insee_commune":"75056"},{"stationcode":"19024","name":"Botzaris - Parc des Buttes Chaumont","is_installed":"OUI","capacity":20,"numdocksavailable":16,"numbikesavailable":4,"mechanical":2,"ebike":2,"is_renting":"OUI","is_returning":"OUI","duedate":"2024-11-10T16:10:55+01:00","coordonnees_geo":{"lon":2.3815,"lat":48.878},"nom_arrondissement_communes":"Paris","code_insee_commune":"75056"},{"stationcode":"16038","name":"Molitor - Chardon-Lagache","is_installed":"OUI","capacity":0,"numdocksavailable":0,"numbikesavailable":0,"mechanical":0,"ebike":0,"is_renting":"NON","is_returning":"NON","duedate":"2024-09-22T22:12:08+02:00","coordonnees_geo":{"lon":2.2657,"lat":48.8452},"nom_arrondissement_communes":"Paris","code_insee_commune":"75056"},{"stationcode":"17105","name":"Place Madeleine Daniélou","is_installed":"OUI","capacity":42,"numdocksavailable":37,"numbikesavailable":5,"mechanical":2,"ebike":3,"is_renting":"OUI","is_returning":"OUI","duedate":"2024-11-10T16:10:21+01:00","coordonnees_geo":{"lon":2.282,"lat":48.8835},"nom_arrondissement_communes":"Paris","code_insee_commune":"75056"},{"stationcode":"7011","name":"Las Cases - Bourgogne","is_installed":"OUI","capacity":16,"numdocksavailable":16,"numbikesavailable":0,"mechanical":0,"ebike":0,"is_renting":"NON","is_returning":"NON","duedate":"2024-08-27T09:27:42+02:00","coordonnees_geo":{"lon":2.3186,"lat":48.8591},"nom_arrondissement_communes":"Paris","code_insee_commune":"75056"},{"stationcode":"9010","name":"Rochechouart lamartine","is_installed":"OUI","capacity":24,"numdocksavailable":23,"numbikesavailable":0,"mechanical":0,"ebike":0,"is_renting":"OUI","is_returning":"OUI","duedate":"2024-11-10T16:14:50+01:00","coordonnees_geo":{"lon":2.3444,"lat":48.8767},"nom_arrondissement_communes":"Paris","code_insee_commune":"75056"},{"stationcode":"24001","name":"Arche - Léonard de Vinci","is_installed":"OUI","capacity":28,"numdocksavailable":24,"numbikesavailable":3,"mechanical":2,"ebike":1,"is_renting":"OUI","is_returning":"OUI","duedate":"2024-11-10T16:14:19+01:00","coordonnees_geo":{"lon":2.2384,"lat":48.8979},"nom_arrondissement_communes":"Courbevoie","code_insee_commune":"92026"},{"stationcode":"11105","name":"Parmentier - République","is_installed":"OUI","capacity":50,"numdocksavailable":45,"numbikesavailable":4,"mechanical":1,"ebike":3,"is_renting":"OUI","is_returning":"OUI","duedate":"2024-11-10T16:14:14+01:00","coordonnees_geo":{"lon":2.375,"lat":48.8645},"nom_arrondissement_communes":"Paris","code_insee_commune":"75056"},{"stationcode":"42010","name":"Mairie d'Ivry-sur-Seine","is_installed":"OUI","capacity":53,"numdocksavailable":10,"numbikesavailable":41,"mechanical":34,"ebike":7,"is_renting":"OUI","is_returning":"OUI","duedate":"2024-11-10T16:15:35+01:00","coordonnees_geo":{"lon":2.3843,"lat":48.8106},"nom_arrondissement_communes":"Ivry-sur-Seine","code_insee_commune":"94041"},{"stationcode":"19032","name":"Villette - Belleville","is_installed":"OUI","capacity":48,"numdocksavailable":37,"numbikesavailable":10,"mechanical":5,"ebike":5,"is_renting":"OUI","is_returning":"OUI","duedate":"2024-11-10T16:15:28+01:00","coordonnees_geo":{"lon":2.3765,"lat":48.8727},"nom_arrondissement_communes":"Paris","code_insee_commune":"75056"},{"stationcode":"16040","name":"Exelmans - Michel-Ange","is_installed":"OUI","capacity":33,"numdocksavailable":17,"numbikesavailable":15,"mechanical":12,"ebike":3,"is_renting":"OUI","is_returning":"OUI","duedate":"2024-11-10T16:15:18+01:00","coordonnees_geo":{"lon":2.2598,"lat":48.8431},"nom_arrondissement_communes":"Paris","code_insee_commune":"75056"},{"stationcode":"19022","name":"Marché Secrétan","is_installed":"OUI","capacity":26,"numdocksavailable":16,"numbikesavailable":10,"mechanical":3,"ebike":7,"is_renting":"OUI","is_returning":"OUI","duedate":"2024-11-10T16:13:32+01:00","coordonnees_geo":{"lon":2.3735,"lat":48.8813},"nom_arrondissement_communes":"Paris","code_insee_commune":"75056"},{"stationcode":"17028","name":"Reims - Raymond Pitet","is_installed":"OUI","capacity":37,"numdocksavailable":8,"numbikesavailable":29,"mechanical":27,"ebike":2,"is_renting":"OUI","is_returning":"OUI","duedate":"2024-11-10T16:15:51+01:00","coordonnees_geo":{"lon":2.2963,"lat":48.8888},"nom_arrondissement_communes":"Paris","code_insee_commune":"75056"},{"stationcode":"21701","name":"Larmeroux - Baudelaire","is_installed":"OUI","capacity":29,"numdocksavailable":28,"numbikesavailable":1,"mechanical":1,"ebike":0,"is_renting":"OUI","is_returning":"OUI","duedate":"2024-11-10T16:09:00+01:00","coordonnees_geo":{"lon":2.281,"lat":48.8169},"nom_arrondissement_communes":"Vanves","code_insee_commune":"92075"},{"stationcode":"19029","name":"Seine - Flandre","is_installed":"OUI","capacity":19,"numdocksavailable":16,"numbikesavailable":2,"mechanical":0,"ebike":2,"is_renting":"OUI","is_returning":"OUI","duedate":"2024-11-10T16:11:16+01:00","coordonnees_geo":{"lon":2.3746,"lat":48.8868},"nom_arrondissement_communes":"Paris","code_insee_commune":"75056"},{"stationcode":"16008","name":"Galilée - Kléber","is_installed":"OUI","capacity":32,"numdocksavailable":32,"numbikesavailable":0,"mechanical":0,"ebike":0,"is_renting":"OUI","is_returning":"OUI","duedate":"2024-11-10T16:14:55+01:00","coordonnees_geo":{"lon":2.2908,"lat":48.8674},"nom_arrondissement_communes":"Paris","code_insee_commune":"75056"},{"stationcode":"9032","name":"Mathurins - Auber","is_installed":"OUI","capacity":36,"numdocksavailable":14,"numbikesavailable":20,"mechanical":15,"ebike":5,"is_renting":"OUI","is_returning":"OUI","duedate":"2024-11-10T16:15:08+01:00","coordonnees_geo":{"lon":2.3295,"lat":48.873},"nom_arrondissement_communes":"Paris","code_insee_commune":"75056"},{"stationcode":"22003","name":"Beffroy","is_installed":"OUI","capacity":26,"numdocksavailable":16,"numbikesavailable":9,"mechanical":6,"ebike":3,"is_renting":"OUI","is_returning":"OUI","duedate":"2024-11-10T16:14:47+01:00","coordonnees_geo":{"lon":2.2614,"lat":48.8866},"nom_arrondissement_communes":"Neuilly-sur-Seine","code_insee_commune":"92051"},{"stationcode":"11042","name":"Grand Prieuré - Crussol","is_installed":"OUI","capacity":49,"numdocksavailable":29,"numbikesavailable":18,"mechanical":11,"ebike":7,"is_renting":"OUI","is_returning":"OUI","duedate":"2024-11-10T16:15:28+01:00","coordonnees_geo":{"lon":2.3692,"lat":48.8647},"nom_arrondissement_communes":"Paris","code_insee_commune":"75056"},{"stationcode":"11024","name":"Mairie du 11ème","is_installed":"OUI","capacity":51,"numdocksavailable":33,"numbikesavailable":17,"mechanical":15,"ebike":2,"is_renting":"OUI","is_returning":"OUI","duedate":"2024-11-10T16:15:16+01:00","coordonnees_geo":{"lon":2.379,"lat":48.8589},"nom_arrondissement_communes":"Paris","code_insee_commune":"75056"},{"stationcode":"9005","name":"Square d'Anvers","is_installed":"OUI","capacity":33,"numdocksavailable":30,"numbikesavailable":2,"mechanical":0,"ebike":2,"is_renting":"OUI","is_returning":"OUI","duedate":"2024-11-10T16:15:42+01:00","coordonnees_geo":{"lon":2.3449,"lat":48.8826},"nom_arrondissement_communes":"Paris","code_insee_commune":"75056"},{"stationcode":"13050","name":"Quai Panhard et Levassor","is_installed":"OUI","capacity":57,"numdocksavailable":45,"numbikesavailable":12,"mechanical":11,"ebike":1,"is_renting":"OUI","is_returning":"OUI","duedate":"2024-11-10T16:13:48+01:00","coordonnees_geo":{"lon":2.3843,"lat":48.8284},"nom_arrondissement_communes":"Paris","code_insee_commune":"75056"},{"stationcode":"1013","name":"Place du Palais Royal","is_installed":"OUI","capacity":67,"numdocksavailable":0,"numbikesavailable":65,"mechanical":25,"ebike":40,"is_renting":"OUI","is_returning":"OUI","duedate":"2024-11-10T16:15:08+01:00","coordonnees_geo":{"lon":2.3385,"lat":48.8624},"nom_arrondissement_communes":"Paris","code_insee_commune":"75056"},{"stationcode":"20134","name":"Lieutenant Chauré - Etienne Marey","is_installed":"OUI","capacity":20,"numdocksavailable":17,"numbikesavailable":2,"mechanical":1,"ebike":1,"is_renting":"OUI","is_returning":"OUI","duedate":"2024-11-10T16:14:16+01:00","coordonnees_geo":{"lon":2.406,"lat":48.8675},"nom_arrondissement_communes":"Paris","code_insee_commune":"75056"},{"stationcode":"7102","name":"Mairie du 7ème","is_installed":"OUI","capacity":48,"numdocksavailable":31,"numbikesavailable":16,"mechanical":15,"ebike":1,"is_renting":"OUI","is_returning":"OUI","duedate":"2024-11-10T16:15:51+01:00","coordonnees_geo":{"lon":2.3193,"lat":48.8578},"nom_arrondissement_communes":"Paris","code_insee_commune":"75056"},{"stationcode":"22016","name":"Charles de Gaulle - Sablonville","is_installed":"OUI","capacity":26,"numdocksavailable":24,"numbikesavailable":2,"mechanical":1,"ebike":1,"is_renting":"OUI","is_returning":"OUI","duedate":"2024-11-10T16:11:59+01:00","coordonnees_geo":{"lon":2.2764,"lat":48.8799},"nom_arrondissement_communes":"Neuilly-sur-Seine","code_insee_commune":"92051"},{"stationcode":"13002","name":"Arago - Glacière","is_installed":"OUI","capacity":27,"numdocksavailable":24,"numbikesavailable":2,"mechanical":1,"ebike":1,"is_renting":"OUI","is_returning":"OUI","duedate":"2024-11-10T16:13:10+01:00","coordonnees_geo":{"lon":2.3446,"lat":48.8349},"nom_arrondissement_communes":"Paris","code_insee_commune":"75056"},{"stationcode":"14136","name":"Auguste Cain - Jean Moulin","is_installed":"OUI","capacity":40,"numdocksavailable":35,"numbikesavailable":4,"mechanical":2,"ebike":2,"is_renting":"OUI","is_returning":"OUI","duedate":"2024-11-10T16:13:07+01:00","coordonnees_geo":{"lon":2.321,"lat":48.8258},"nom_arrondissement_communes":"Paris","code_insee_commune":"75056"},{"stationcode":"44010","name":"8 Mai 1945 - 10 Juillet 1940","is_installed":"NON","capacity":30,"numdocksavailable":30,"numbikesavailable":0,"mechanical":0,"ebike":0,"is_renting":"NON","is_returning":"NON","duedate":"2023-11-05T09:56:42+01:00","coordonnees_geo":{"lon":2.3979,"lat":48.7846},"nom_arrondissement_communes":"Vitry-sur-Seine","code_insee_commune":"94081"},{"stationcode":"32302","name":"Chemin Vert - Fraternité","is_installed":"OUI","capacity":20,"numdocksavailable":18,"numbikesavailable":1,"mechanical":0,"ebike":1,"is_renting":"OUI","is_returning":"OUI","duedate":"2024-11-10T16:08:54+01:00","coordonnees_geo":{"lon":2.4462,"lat":48.8771},"nom_arrondissement_communes":"Romainville","code_insee_commune":"93063"},{"stationcode":"42301","name":"Gare Arcueil - Cachan","is_installed":"OUI","capacity":26,"numdocksavailable":21,"numbikesavailable":5,"mechanical":2,"ebike":3,"is_renting":"OUI","is_returning":"OUI","duedate":"2024-11-10T16:14:52+01:00","coordonnees_geo":{"lon":2.3282,"lat":48.7998},"nom_arrondissement_communes":"Arcueil","code_insee_commune":"94003"},{"stationcode":"10014","name":"Marseille - Beaurepaire","is_installed":"OUI","capacity":55,"numdocksavailable":40,"numbikesavailable":13,"mechanical":7,"ebike":6,"is_renting":"OUI","is_returning":"OUI","duedate":"2024-11-10T16:15:52+01:00","coordonnees_geo":{"lon":2.3639,"lat":48.8716},"nom_arrondissement_communes":"Paris","code_insee_commune":"75056"},{"stationcode":"42504","name":"Gare RER de Gentilly","is_installed":"OUI","capacity":30,"numdocksavailable":19,"numbikesavailable":11,"mechanical":7,"ebike":4,"is_renting":"OUI","is_returning":"OUI","duedate":"2024-11-10T16:13:44+01:00","coordonnees_geo":{"lon":2.341,"lat":48.8143},"nom_arrondissement_communes":"Gentilly","code_insee_commune":"94037"},{"stationcode":"11035","name":"Parmentier - Abel Rabaud","is_installed":"OUI","capacity":52,"numdocksavailable":48,"numbikesavailable":4,"mechanical":2,"ebike":2,"is_renting":"OUI","is_returning":"OUI","duedate":"2024-11-10T16:14:30+01:00","coordonnees_geo":{"lon":2.3717,"lat":48.8692},"nom_arrondissement_communes":"Paris","code_insee_commune":"75056"},{"stationcode":"20111","name":"Villiers de l'Isle Adam - Pyrénées","is_installed":"OUI","capacity":20,"numdocksavailable":18,"numbikesavailable":2,"mechanical":0,"ebike":2,"is_renting":"OUI","is_returning":"OUI","duedate":"2024-11-10T16:14:25+01:00","coordonnees_geo":{"lon":2.3962,"lat":48.8674},"nom_arrondissement_communes":"Paris","code_insee_commune":"75056"},{"stationcode":"15046","name":"Parc Georges Brassens - Brancion","is_installed":"OUI","capacity":29,"numdocksavailable":27,"numbikesavailable":2,"mechanical":0,"ebike":2,"is_renting":"OUI","is_returning":"OUI","duedate":"2024-11-10T16:12:18+01:00","coordonnees_geo":{"lon":2.3023,"lat":48.8323},"nom_arrondissement_communes":"Paris","code_insee_commune":"75056"},{"stationcode":"32016","name":"Place de la Porte de Paris","is_installed":"OUI","capacity":40,"numdocksavailable":24,"numbikesavailable":16,"mechanical":10,"ebike":6,"is_renting":"OUI","is_returning":"OUI","duedate":"2024-11-10T16:13:32+01:00","coordonnees_geo":{"lon":2.3564,"lat":48.9301},"nom_arrondissement_communes":"Saint-Denis","code_insee_commune":"93066"},{"stationcode":"46001","name":"Place Paul Eluard","is_installed":"OUI","capacity":19,"numdocksavailable":1,"numbikesavailable":18,"mechanical":3,"ebike":15,"is_renting":"OUI","is_returning":"OUI","duedate":"2024-11-10T16:13:44+01:00","coordonnees_geo":{"lon":2.4145,"lat":48.7672},"nom_arrondissement_communes":"Choisy-le-Roi","code_insee_commune":"94022"},{"stationcode":"31010","name":"Stalingrad - Désiré Chevalier","is_installed":"OUI","capacity":42,"numdocksavailable":35,"numbikesavailable":5,"mechanical":3,"ebike":2,"is_renting":"OUI","is_returning":"OUI","duedate":"2024-11-10T16:08:50+01:00","coordonnees_geo":{"lon":2.4451,"lat":48.8567},"nom_arrondissement_communes":"Montreuil","code_insee_commune":"93048"},{"stationcode":"22006","name":"Pierret - Madrid","is_installed":"OUI","capacity":28,"numdocksavailable":11,"numbikesavailable":17,"mechanical":10,"ebike":7,"is_renting":"OUI","is_returning":"OUI","duedate":"2024-11-10T16:14:49+01:00","coordonnees_geo":{"lon":2.2601,"lat":48.883},"nom_arrondissement_communes":"Neuilly-sur-Seine","code_insee_commune":"92051"},{"stationcode":"19008","name":"Flandre - Alphonse Karr","is_installed":"OUI","capacity":26,"numdocksavailable":16,"numbikesavailable":8,"mechanical":2,"ebike":6,"is_renting":"OUI","is_returning":"OUI","duedate":"2024-11-10T16:12:23+01:00","coordonnees_geo":{"lon":2.3819,"lat":48.8946},"nom_arrondissement_communes":"Paris","code_insee_commune":"75056"},{"stationcode":"21301","name":"Saint-Vincent - Verdun","is_installed":"OUI","capacity":34,"numdocksavailable":9,"numbikesavailable":25,"mechanical":21,"ebike":4,"is_renting":"OUI","is_returning":"OUI","duedate":"2024-11-10T16:15:08+01:00","coordonnees_geo":{"lon":2.254,"lat":48.8192},"nom_arrondissement_communes":"Issy-les-Moulineaux","code_insee_commune":"92040"},{"stationcode":"43003","name":"Hôpital Bégin","is_installed":"OUI","capacity":26,"numdocksavailable":7,"numbikesavailable":19,"mechanical":15,"ebike":4,"is_renting":"OUI","is_returning":"OUI","duedate":"2024-11-10T16:15:16+01:00","coordonnees_geo":{"lon":2.4272,"lat":48.8457},"nom_arrondissement_communes":"Vincennes","code_insee_commune":"94080"},{"stationcode":"42302","name":"Aristide Briand - Gare de Bagneux","is_installed":"OUI","capacity":22,"numdocksavailable":21,"numbikesavailable":1,"mechanical":0,"ebike":1,"is_renting":"OUI","is_returning":"OUI","duedate":"2024-11-10T16:07:25+01:00","coordonnees_geo":{"lon":2.3211,"lat":48.7939},"nom_arrondissement_communes":"Cachan","code_insee_commune":"94016"},{"stationcode":"51004","name":"Général Delambre - Prebuard","is_installed":"OUI","capacity":29,"numdocksavailable":6,"numbikesavailable":23,"mechanical":11,"ebike":12,"is_renting":"OUI","is_returning":"OUI","duedate":"2024-11-10T16:15:35+01:00","coordonnees_geo":{"lon":2.2234,"lat":48.9387},"nom_arrondissement_communes":"Argenteuil","code_insee_commune":"95018"},{"stationcode":"19016","name":"Hautpoul - Jean Jaurès","is_installed":"OUI","capacity":32,"numdocksavailable":30,"numbikesavailable":2,"mechanical":0,"ebike":2,"is_renting":"OUI","is_returning":"OUI","duedate":"2024-11-10T16:11:32+01:00","coordonnees_geo":{"lon":2.3865,"lat":48.8864},"nom_arrondissement_communes":"Paris","code_insee_commune":"75056"},{"stationcode":"18012","name":"Stephenson - Doudeauville","is_installed":"OUI","capacity":36,"numdocksavailable":33,"numbikesavailable":3,"mechanical":1,"ebike":2,"is_renting":"OUI","is_returning":"OUI","duedate":"2024-11-10T16:12:44+01:00","coordonnees_geo":{"lon":2.3562,"lat":48.8885},"nom_arrondissement_communes":"Paris","code_insee_commune":"75056"},{"stationcode":"32003","name":"Wilson - Métallurgie","is_installed":"OUI","capacity":28,"numdocksavailable":19,"numbikesavailable":8,"mechanical":6,"ebike":2,"is_renting":"OUI","is_returning":"OUI","duedate":"2024-11-10T16:15:25+01:00","coordonnees_geo":{"lon":2.3584,"lat":48.9094},"nom_arrondissement_communes":"Saint-Denis","code_insee_commune":"93066"},{"stationcode":"19125","name":"Place de l'Édit de Nantes","is_installed":"OUI","capacity":30,"numdocksavailable":20,"numbikesavailable":8,"mechanical":4,"ebike":4,"is_renting":"OUI","is_returning":"OUI","duedate":"2024-11-10T16:14:38+01:00","coordonnees_geo":{"lon":2.3785,"lat":48.8888},"nom_arrondissement_communes":"Paris","code_insee_commune":"75056"},{"stationcode":"21104","name":"Madame de Sanzillon - Mozart","is_installed":"OUI","capacity":22,"numdocksavailable":7,"numbikesavailable":13,"mechanical":10,"ebike":3,"is_renting":"OUI","is_returning":"OUI","duedate":"2024-11-10T16:15:08+01:00","coordonnees_geo":{"lon":2.3187,"lat":48.9038},"nom_arrondissement_communes":"Clichy","code_insee_commune":"92024"},{"stationcode":"14036","name":"Boulard - Daguerre","is_installed":"OUI","capacity":45,"numdocksavailable":42,"numbikesavailable":2,"mechanical":2,"ebike":0,"is_renting":"OUI","is_returning":"OUI","duedate":"2024-11-10T16:14:27+01:00","coordonnees_geo":{"lon":2.3293,"lat":48.8345},"nom_arrondissement_communes":"Paris","code_insee_commune":"75056"},{"stationcode":"32026","name":"Leroy des Barres - Médiathèque","is_installed":"OUI","capacity":26,"numdocksavailable":14,"numbikesavailable":11,"mechanical":2,"ebike":9,"is_renting":"OUI","is_returning":"OUI","duedate":"2024-11-10T16:15:03+01:00","coordonnees_geo":{"lon":2.3682,"lat":48.9283},"nom_arrondissement_communes":"Saint-Denis","code_insee_commune":"93066"},{"stationcode":"19205","name":"Simon Bolivar - Henri Turot","is_installed":"OUI","capacity":23,"numdocksavailable":22,"numbikesavailable":0,"mechanical":0,"ebike":0,"is_renting":"OUI","is_returning":"OUI","duedate":"2024-11-10T16:15:24+01:00","coordonnees_geo":{"lon":2.374,"lat":48.8775},"nom_arrondissement_communes":"Paris","code_insee_commune":"75056"},{"stationcode":"8025","name":"Miromesnil - La Boétie","is_installed":"OUI","capacity":35,"numdocksavailable":11,"numbikesavailable":23,"mechanical":19,"ebike":4,"is_renting":"OUI","is_returning":"OUI","duedate":"2024-11-10T16:15:44+01:00","coordonnees_geo":{"lon":2.3158,"lat":48.8737},"nom_arrondissement_communes":"Paris","code_insee_commune":"75056"},{"stationcode":"5123","name":"Saint-Germain - Thenard","is_installed":"OUI","capacity":31,"numdocksavailable":2,"numbikesavailable":26,"mechanical":19,"ebike":7,"is_renting":"OUI","is_returning":"OUI","duedate":"2024-11-10T16:15:48+01:00","coordonnees_geo":{"lon":2.3471,"lat":48.8506},"nom_arrondissement_communes":"Paris","code_insee_commune":"75056"},{"stationcode":"20121","name":"Boyer - Ménilmontant","is_installed":"OUI","capacity":19,"numdocksavailable":18,"numbikesavailable":1,"mechanical":0,"ebike":1,"is_renting":"OUI","is_returning":"OUI","duedate":"2024-11-10T16:15:39+01:00","coordonnees_geo":{"lon":2.392,"lat":48.8689},"nom_arrondissement_communes":"Paris","code_insee_commune":"75056"},{"stationcode":"9021","name":"Saint Georges - d'Aumale","is_installed":"OUI","capacity":23,"numdocksavailable":21,"numbikesavailable":2,"mechanical":0,"ebike":2,"is_renting":"OUI","is_returning":"OUI","duedate":"2024-11-10T16:12:19+01:00","coordonnees_geo":{"lon":2.3374,"lat":48.8778},"nom_arrondissement_communes":"Paris","code_insee_commune":"75056"},{"stationcode":"19013","name":"Laumière - Petit","is_installed":"OUI","capacity":34,"numdocksavailable":32,"numbikesavailable":0,"mechanical":0,"ebike":0,"is_renting":"OUI","is_returning":"OUI","duedate":"2024-11-10T16:15:48+01:00","coordonnees_geo":{"lon":2.38,"lat":48.8847},"nom_arrondissement_communes":"Paris","code_insee_commune":"75056"},{"stationcode":"32303","name":"Gaston Roussel - Commune de Paris","is_installed":"OUI","capacity":30,"numdocksavailable":20,"numbikesavailable":9,"mechanical":3,"ebike":6,"is_renting":"OUI","is_returning":"OUI","duedate":"2024-11-10T16:15:01+01:00","coordonnees_geo":{"lon":2.4326,"lat":48.8943},"nom_arrondissement_communes":"Romainville","code_insee_commune":"93063"},{"stationcode":"26013","name":"Quai du docteur Dervaux","is_installed":"OUI","capacity":26,"numdocksavailable":7,"numbikesavailable":18,"mechanical":11,"ebike":7,"is_renting":"OUI","is_returning":"OUI","duedate":"2024-11-10T16:13:49+01:00","coordonnees_geo":{"lon":2.298,"lat":48.9105},"nom_arrondissement_communes":"Asnières-sur-Seine","code_insee_commune":"92004"},{"stationcode":"42029","name":"Stalingrad - Germaine Tailleferre","is_installed":"OUI","capacity":28,"numdocksavailable":18,"numbikesavailable":10,"mechanical":4,"ebike":6,"is_renting":"OUI","is_returning":"OUI","duedate":"2024-11-10T16:15:35+01:00","coordonnees_geo":{"lon":2.3787,"lat":48.8026},"nom_arrondissement_communes":"Ivry-sur-Seine","code_insee_commune":"94041"},{"stationcode":"20043","name":"Charonne - Avron","is_installed":"OUI","capacity":27,"numdocksavailable":24,"numbikesavailable":3,"mechanical":0,"ebike":3,"is_renting":"OUI","is_returning":"OUI","duedate":"2024-11-10T16:14:05+01:00","coordonnees_geo":{"lon":2.3984,"lat":48.8516},"nom_arrondissement_communes":"Paris","code_insee_commune":"75056"},{"stationcode":"12115","name":"Porte de Vincennes","is_installed":"OUI","capacity":33,"numdocksavailable":15,"numbikesavailable":18,"mechanical":17,"ebike":1,"is_renting":"OUI","is_returning":"OUI","duedate":"2024-11-10T16:09:50+01:00","coordonnees_geo":{"lon":2.4155,"lat":48.8465},"nom_arrondissement_communes":"Paris","code_insee_commune":"75056"},{"stationcode":"42015","name":"Place Jean Ferrat","is_installed":"OUI","capacity":25,"numdocksavailable":24,"numbikesavailable":1,"mechanical":0,"ebike":1,"is_renting":"OUI","is_returning":"OUI","duedate":"2024-11-10T16:10:20+01:00","coordonnees_geo":{"lon":2.3744,"lat":48.8185},"nom_arrondissement_communes":"Ivry-sur-Seine","code_insee_commune":"94041"},{"stationcode":"8035","name":"Bienfaisance - Place de Narvik","is_installed":"OUI","capacity":36,"numdocksavailable":31,"numbikesavailable":4,"mechanical":2,"ebike":2,"is_renting":"OUI","is_returning":"OUI","duedate":"2024-11-10T16:10:46+01:00","coordonnees_geo":{"lon":2.313,"lat":48.8766},